<?xml version="1.0" encoding="UTF-8"?>
<kml xmlns="http://www.opengis.net/kml/2.2" xmlns:gx="http://www.google.com/kml/ext/2.2" xmlns:kml="http://www.opengis.net/kml/2.2" xmlns:atom="http://www.w3.org/2005/Atom">
<Document>
	<name>Core Network Sites - 2016-06-10.kml</name>
	<open>1</open>
	<Style id="green_sq">
		<IconStyle>
			<color>ff04b45f</color>
			<scale>0.7</scale>
			<Icon>
				<href>http://maps.google.com/mapfiles/kml/pal4/icon56.png</href>
			</Icon>
		</IconStyle>
		<LabelStyle>
			<scale>0.7</scale>
		</LabelStyle>
	</Style>
	<Style id="black_sq">
		<IconStyle>
			<scale>0.7</scale>
			<Icon>
				<href>http://maps.google.com/mapfiles/kml/pal4/icon56.png</href>
			</Icon>
		</IconStyle>
		<LabelStyle>
			<scale>0.7</scale>
		</LabelStyle>
	</Style>
	<Style id="red_sq">
		<IconStyle>
			<color>ff0101df</color>
			<scale>0.7</scale>
			<Icon>
				<href>http://maps.google.com/mapfiles/kml/pal4/icon56.png</href>
			</Icon>
		</IconStyle>
		<LabelStyle>
			<scale>0.7</scale>
		</LabelStyle>
	</Style>
	<Style id="orange_sq">
		<IconStyle>
			<color>ff0080ff</color>
			<scale>0.7</scale>
			<Icon>
				<href>http://maps.google.com/mapfiles/kml/pal4/icon56.png</href>
			</Icon>
		</IconStyle>
		<LabelStyle>
			<scale>0.7</scale>
		</LabelStyle>
	</Style>
	<Folder>
		<name>Transit Nodes</name>
		<TimeSpan>
			<begin>2011</begin>
			<end>2023</end>
		</TimeSpan>
		<Placemark>
			<name>2NSM</name>
			<description><![CDATA[<u>SITE:</u><br>213 Miller St Office [2NSM]<br>State: NSW<br>ESA: 2NSM<br>FAN Size: <br>RCP: RCP-SYD-2.1<br>Agg Site: 2STL<br>Full Site Handover: 0<br>FAN RFS: 2011-07-31 [Mth 0]<br>Total Racks: 0<br>Site Owner: NBNCo<br>]]></description>
			<styleUrl>#black_sq</styleUrl>
			<Point>
				<coordinates>151.207656,-33.83589,0</coordinates>
			</Point>
		</Placemark>
		<Placemark>
			<name>7MUS</name>
			<description><![CDATA[<u>SITE:</u><br>39 Murray St Office [7MUS]<br>State: TAS<br>ESA: 7MUS<br>FAN Size: <br>RCP: RCP-TASSTH-4.2<br>Agg Site: 7HOB<br>Full Site Handover: 0<br>FAN RFS: 2011-07-31 [Mth 0]<br>Total Racks: 0<br>Site Owner: NBNCo<br>]]></description>
			<styleUrl>#black_sq</styleUrl>
			<Point>
				<coordinates>147.327188,-42.883105,0</coordinates>
			</Point>
		</Placemark>
		<Placemark>
			<name>2NSI</name>
			<description><![CDATA[<u>SITE:</u><br>50 Miller St Office [2NSI]<br>State: NSW<br>ESA: 2NSI<br>FAN Size: <br>RCP: RCP-SYD-2.1<br>Agg Site: 2STL<br>Full Site Handover: 0<br>FAN RFS: 2011-07-31 [Mth 0]<br>Total Racks: 0<br>Site Owner: NBNCo<br>]]></description>
			<styleUrl>#black_sq</styleUrl>
			<Point>
				<coordinates>151.20651,-33.839891,0</coordinates>
			</Point>
		</Placemark>
		<Placemark>
			<name>3BOS</name>
			<description><![CDATA[<u>SITE:</u><br>535 Bourke St Office [3BOS]<br>State: VIC<br>ESA: 3BOS<br>FAN Size: <br>RCP: RCP-MEL-3.2<br>Agg Site: 3EXH<br>Full Site Handover: 0<br>FAN RFS: 2011-07-31 [Mth 0]<br>Total Racks: 0<br>Site Owner: NBNCo<br>]]></description>
			<styleUrl>#black_sq</styleUrl>
			<Point>
				<coordinates>144.957809,-37.816269,0</coordinates>
			</Point>
		</Placemark>
		<Placemark>
			<name>2ABF</name>
			<description><![CDATA[<u>SITE:</u><br>Aberfoyle [2ABF]<br>State: NSW<br>ESA: ABFL<br>FAN Size: <br>RCP: RCP-NSWNTH-10.1<br>Agg Site: 2TAM<br>Full Site Handover: 12<br>FAN RFS: 2011-07-31 [Mth 0]<br>Total Racks: 1<br>Site Owner: Telstra<br>]]></description>
			<styleUrl>#black_sq</styleUrl>
			<Point>
				<coordinates>152.017,-30.2582,0</coordinates>
			</Point>
		</Placemark>
		<Placemark>
			<name>5KES</name>
			<description><![CDATA[<u>SITE:</u><br>Adelaide Office [5KES]<br>State: SA<br>ESA: 5KES<br>FAN Size: <br>RCP: RCP-ADL-5.2<br>Agg Site: 5EDW<br>Full Site Handover: 0<br>FAN RFS: 2011-07-31 [Mth 0]<br>Total Racks: 0<br>Site Owner: NBNCo<br>]]></description>
			<styleUrl>#black_sq</styleUrl>
			<Point>
				<coordinates>138.5791906,-34.9413977,0</coordinates>
			</Point>
		</Placemark>
		<Placemark>
			<name>8ADR</name>
			<description><![CDATA[<u>SITE:</u><br>Adelaide River CEV [8ADR]<br>State: NT<br>ESA: ADRV<br>FAN Size: <br>RCP: RCP-NT-7.1<br>Agg Site: 8DRW<br>Full Site Handover: 27<br>FAN RFS: 2011-07-31 [Mth 0]<br>Total Racks: 1<br>Site Owner: NextGen<br>]]></description>
			<styleUrl>#black_sq</styleUrl>
			<Point>
				<coordinates>131.098581,-13.232142,0</coordinates>
			</Point>
		</Placemark>
		<Placemark>
			<name>6AJA</name>
			<description><![CDATA[<u>SITE:</u><br>Ajana [6AJA]<br>State: WA<br>ESA: AJNA<br>FAN Size: <br>RCP: RCP-WANTH-16.1<br>Agg Site: 6GLT<br>Full Site Handover: 50<br>FAN RFS: 2011-07-31 [Mth 0]<br>Total Racks: 2<br>Site Owner: Telstra<br>]]></description>
			<styleUrl>#black_sq</styleUrl>
			<Point>
				<coordinates>114.686,-27.9422,0</coordinates>
			</Point>
		</Placemark>
		<Placemark>
			<name>4ALH</name>
			<description><![CDATA[<u>SITE:</u><br>ALEXANDRA HILLS [4ALH]<br>State: QLD<br>ESA: ALXH<br>FAN Size: <br>RCP: RCP-BRS-1.1<br>Agg Site: 4CPH<br>Full Site Handover: 80<br>FAN RFS: 2011-07-31 [Mth 0]<br>Total Racks: 1<br>Site Owner: Telstra<br>]]></description>
			<styleUrl>#black_sq</styleUrl>
			<Point>
				<coordinates>153.228,-27.5281,0</coordinates>
			</Point>
		</Placemark>
		<Placemark>
			<name>8AST</name>
			<description><![CDATA[<u>SITE:</u><br>Alice Springs Satellite RFAT [8AST]<br>State: NT<br>ESA: 8AST<br>FAN Size: <br>RCP: RCP-NT-7.1<br>Agg Site: 8DRW<br>Full Site Handover: 0<br>FAN RFS: 2011-07-31 [Mth 0]<br>Total Racks: 0<br>Site Owner: NBNCo<br>]]></description>
			<styleUrl>#black_sq</styleUrl>
			<Point>
				<coordinates>133.900733,-23.800356,0</coordinates>
			</Point>
		</Placemark>
		<Placemark>
			<name>2ANB</name>
			<description><![CDATA[<u>SITE:</u><br>Anabranch CEV [2ANB]<br>State: NSW<br>ESA: ANBR<br>FAN Size: <br>RCP: RCP-NSWSTH-11.1<br>Agg Site: 2DBB<br>Full Site Handover: 34<br>FAN RFS: 2011-07-31 [Mth 0]<br>Total Racks: 1<br>Site Owner: NextGen<br>]]></description>
			<styleUrl>#black_sq</styleUrl>
			<Point>
				<coordinates>141.748208,-33.580009,0</coordinates>
			</Point>
		</Placemark>
		<Placemark>
			<name>4APY</name>
			<description><![CDATA[<u>SITE:</u><br>Apunyal CEV [4APY]<br>State: QLD<br>ESA: APYL<br>FAN Size: <br>RCP: RCP-QLDSTH-9.2<br>Agg Site: 4TOB<br>Full Site Handover: 28<br>FAN RFS: 2011-07-31 [Mth 0]<br>Total Racks: 1<br>Site Owner: NextGen<br>]]></description>
			<styleUrl>#black_sq</styleUrl>
			<Point>
				<coordinates>151.165059,-27.109158,0</coordinates>
			</Point>
		</Placemark>
		<Placemark>
			<name>2ARJ</name>
			<description><![CDATA[<u>SITE:</u><br>Arajoel [2ARJ]<br>State: NSW<br>ESA: ARAJ<br>FAN Size: <br>RCP: RCP-NSWSTH-11.2<br>Agg Site: 2WAG<br>Full Site Handover: 24<br>FAN RFS: 2011-07-31 [Mth 0]<br>Total Racks: 1<br>Site Owner: Telstra<br>]]></description>
			<styleUrl>#black_sq</styleUrl>
			<Point>
				<coordinates>146.88694,-35.00444,0</coordinates>
			</Point>
		</Placemark>
		<Placemark>
			<name>4ARD</name>
			<description><![CDATA[<u>SITE:</u><br>Arcadia CEV [4ARD]<br>State: QLD<br>ESA: ARCD<br>FAN Size: <br>RCP: RCP-QLDSTH-9.2<br>Agg Site: 4TOB<br>Full Site Handover: 28<br>FAN RFS: 2011-07-31 [Mth 0]<br>Total Racks: 1<br>Site Owner: NextGen<br>]]></description>
			<styleUrl>#black_sq</styleUrl>
			<Point>
				<coordinates>148.673807,-25.20379,0</coordinates>
			</Point>
		</Placemark>
		<Placemark>
			<name>4ARC</name>
			<description><![CDATA[<u>SITE:</u><br>ARCHER RIVER [4ARC]<br>State: QLD<br>ESA: ARCR<br>FAN Size: <br>RCP: RCP-QLDNTH-8.1<br>Agg Site: 4CAI<br>Full Site Handover: 36<br>FAN RFS: 2011-07-31 [Mth 0]<br>Total Racks: 1<br>Site Owner: Telstra<br>]]></description>
			<styleUrl>#black_sq</styleUrl>
			<Point>
				<coordinates>143.00361,-13.54222,0</coordinates>
			</Point>
		</Placemark>
		<Placemark>
			<name>5ARN</name>
			<description><![CDATA[<u>SITE:</u><br>Arno Bay [5ARN]<br>State: SA<br>ESA: AOBY<br>FAN Size: <br>RCP: RCP-SACTRY-14.1<br>Agg Site: 5PTA<br>Full Site Handover: 24<br>FAN RFS: 2011-07-31 [Mth 0]<br>Total Racks: 1<br>Site Owner: Telstra<br>]]></description>
			<styleUrl>#black_sq</styleUrl>
			<Point>
				<coordinates>136.569,-33.9114,0</coordinates>
			</Point>
		</Placemark>
		<Placemark>
			<name>6ARR</name>
			<description><![CDATA[<u>SITE:</u><br>Arromall CEV [6ARR]<br>State: WA<br>ESA: ARRM<br>FAN Size: <br>RCP: RCP-WANTH-16.1<br>Agg Site: 6GLT<br>Full Site Handover: 36<br>FAN RFS: 2011-07-31 [Mth 0]<br>Total Racks: 1<br>Site Owner: NextGen<br>]]></description>
			<styleUrl>#black_sq</styleUrl>
			<Point>
				<coordinates>115.070179,-29.54296,0</coordinates>
			</Point>
		</Placemark>
		<Placemark>
			<name>2RNN</name>
			<description><![CDATA[<u>SITE:</u><br>Artarmon [2RNN]<br>State: NSW<br>ESA: 22RN<br>FAN Size: <br>RCP: RCP-SYD-2.1<br>Agg Site: 2STL<br>Full Site Handover: 80<br>FAN RFS: 2011-07-31 [Mth 0]<br>Total Racks: 1<br>Site Owner: Optus<br>]]></description>
			<styleUrl>#black_sq</styleUrl>
			<Point>
				<coordinates>151.185629,-33.817459,0</coordinates>
			</Point>
		</Placemark>
		<Placemark>
			<name>6ASH</name>
			<description><![CDATA[<u>SITE:</u><br>ASHBURTON OFRS [6ASH]<br>State: WA<br>ESA: ASHN<br>FAN Size: <br>RCP: RCP-WANTH-16.1<br>Agg Site: 6GLT<br>Full Site Handover: 21<br>FAN RFS: 2011-07-31 [Mth 0]<br>Total Racks: 1<br>Site Owner: Telstra<br>]]></description>
			<styleUrl>#black_sq</styleUrl>
			<Point>
				<coordinates>119.75028,-23.8925,0</coordinates>
			</Point>
		</Placemark>
		<Placemark>
			<name>8ATC</name>
			<description><![CDATA[<u>SITE:</u><br>Attack Creek [8ATC]<br>State: NT<br>ESA: ATCO<br>FAN Size: <br>RCP: RCP-NT-7.1<br>Agg Site: 8DRW<br>Full Site Handover: 37<br>FAN RFS: 2011-07-31 [Mth 0]<br>Total Racks: 1<br>Site Owner: Telstra<br>]]></description>
			<styleUrl>#black_sq</styleUrl>
			<Point>
				<coordinates>134.14,-19.01944444,0</coordinates>
			</Point>
		</Placemark>
		<Placemark>
			<name>4AGT</name>
			<description><![CDATA[<u>SITE:</u><br>Augathella [4AGT]<br>State: QLD<br>ESA: AUGA<br>FAN Size: <br>RCP: RCP-QLDSTH-9.2<br>Agg Site: 4TOB<br>Full Site Handover: 23<br>FAN RFS: 2011-07-31 [Mth 0]<br>Total Racks: 1<br>Site Owner: Telstra<br>]]></description>
			<styleUrl>#black_sq</styleUrl>
			<Point>
				<coordinates>146.585,-25.7959,0</coordinates>
			</Point>
		</Placemark>
		<Placemark>
			<name>6ATN</name>
			<description><![CDATA[<u>SITE:</u><br>AUSTIN OFRS [6ATN]<br>State: WA<br>ESA: ASNB<br>FAN Size: <br>RCP: RCP-WANTH-16.1<br>Agg Site: 6GLT<br>Full Site Handover: 21<br>FAN RFS: 2011-07-31 [Mth 0]<br>Total Racks: 0<br>Site Owner: Telstra<br>]]></description>
			<styleUrl>#black_sq</styleUrl>
			<Point>
				<coordinates>117.88139,-27.67583,0</coordinates>
			</Point>
		</Placemark>
		<Placemark>
			<name>8AUO</name>
			<description><![CDATA[<u>SITE:</u><br>Auvergne OFRS [8AUO]<br>State: NT<br>ESA: AVEO<br>FAN Size: <br>RCP: RCP-NT-7.1<br>Agg Site: 8DRW<br>Full Site Handover: 27<br>FAN RFS: 2011-07-31 [Mth 0]<br>Total Racks: 1<br>Site Owner: Telstra<br>]]></description>
			<styleUrl>#black_sq</styleUrl>
			<Point>
				<coordinates>130.033,-15.76027,0</coordinates>
			</Point>
		</Placemark>
		<Placemark>
			<name>8AVD</name>
			<description><![CDATA[<u>SITE:</u><br>Avon Downs CEV [8AVD]<br>State: NT<br>ESA: AVDS<br>FAN Size: <br>RCP: RCP-NT-7.1<br>Agg Site: 8DRW<br>Full Site Handover: 27<br>FAN RFS: 2011-07-31 [Mth 0]<br>Total Racks: 1<br>Site Owner: NextGen<br>]]></description>
			<styleUrl>#black_sq</styleUrl>
			<Point>
				<coordinates>137.480517,-20.022702,0</coordinates>
			</Point>
		</Placemark>
		<Placemark>
			<name>4BAJ</name>
			<description><![CDATA[<u>SITE:</u><br>Bajool OFRS [4BAJ]<br>State: QLD<br>ESA: BAJR<br>FAN Size: <br>RCP: RCP-QLDSTH-9.1<br>Agg Site: 4BBE<br>Full Site Handover: 21<br>FAN RFS: 2011-07-31 [Mth 0]<br>Total Racks: 1<br>Site Owner: Telstra<br>]]></description>
			<styleUrl>#black_sq</styleUrl>
			<Point>
				<coordinates>150.64583,-23.65222,0</coordinates>
			</Point>
		</Placemark>
		<Placemark>
			<name>3BAL</name>
			<description><![CDATA[<u>SITE:</u><br>BALACLAVA [3BAL]<br>State: VIC<br>ESA: BALC<br>FAN Size: <br>RCP: RCP-MEL-3.3<br>Agg Site: 3STK<br>Full Site Handover: 80<br>FAN RFS: 2011-07-31 [Mth 0]<br>Total Racks: 1<br>Site Owner: Telstra<br>]]></description>
			<styleUrl>#black_sq</styleUrl>
			<Point>
				<coordinates>145.004,-37.8642,0</coordinates>
			</Point>
		</Placemark>
		<Placemark>
			<name>6BFI</name>
			<description><![CDATA[<u>SITE:</u><br>BALLADONIA REPEATER 2 [6BFI]<br>State: WA<br>ESA: BFIA<br>FAN Size: <br>RCP: RCP-WASTH-15.1<br>Agg Site: 6KAT<br>Full Site Handover: 28<br>FAN RFS: 2011-07-31 [Mth 0]<br>Total Racks: 1<br>Site Owner: Telstra<br>]]></description>
			<styleUrl>#black_sq</styleUrl>
			<Point>
				<coordinates>123.62277,-32.345,0</coordinates>
			</Point>
		</Placemark>
		<Placemark>
			<name>6BLA</name>
			<description><![CDATA[<u>SITE:</u><br>BALLAJURA [6BLA]<br>State: WA<br>ESA: BLJA<br>FAN Size: <br>RCP: RCP-PER-6.2<br>Agg Site: 6PEA<br>Full Site Handover: 80<br>FAN RFS: 2011-07-31 [Mth 0]<br>Total Racks: 1<br>Site Owner: Telstra<br>]]></description>
			<styleUrl>#black_sq</styleUrl>
			<Point>
				<coordinates>115.884873168973,-31.846236338789,0</coordinates>
			</Point>
		</Placemark>
		<Placemark>
			<name>4BAM</name>
			<description><![CDATA[<u>SITE:</u><br>BAMBOO RANGE RT [4BAM]<br>State: QLD<br>ESA: BBRR<br>FAN Size: <br>RCP: RCP-QLDNTH-8.1<br>Agg Site: 4CAI<br>Full Site Handover: 36<br>FAN RFS: 2011-07-31 [Mth 0]<br>Total Racks: 1<br>Site Owner: Telstra<br>]]></description>
			<styleUrl>#black_sq</styleUrl>
			<Point>
				<coordinates>143.43694,-14.65666,0</coordinates>
			</Point>
		</Placemark>
		<Placemark>
			<name>4SBB</name>
			<description><![CDATA[<u>SITE:</u><br>Ban Ban Springs South OFRS [4SBB]<br>State: QLD<br>ESA: SBBN<br>FAN Size: <br>RCP: RCP-QLDSTH-9.1<br>Agg Site: 4TOB<br>Full Site Handover: 20<br>FAN RFS: 2011-07-31 [Mth 0]<br>Total Racks: 1<br>Site Owner: Telstra<br>]]></description>
			<styleUrl>#black_sq</styleUrl>
			<Point>
				<coordinates>151.85361,-25.76528,0</coordinates>
			</Point>
		</Placemark>
		<Placemark>
			<name>6BAH</name>
			<description><![CDATA[<u>SITE:</u><br>Bandalup Hill [6BAH]<br>State: WA<br>ESA: BDLH<br>FAN Size: <br>RCP: RCP-WASTH-15.1<br>Agg Site: 6KAT<br>Full Site Handover: 24<br>FAN RFS: 2011-07-31 [Mth 0]<br>Total Racks: 2<br>Site Owner: Telstra<br>]]></description>
			<styleUrl>#black_sq</styleUrl>
			<Point>
				<coordinates>120.37556,-33.60806,0</coordinates>
			</Point>
		</Placemark>
		<Placemark>
			<name>2BDE</name>
			<description><![CDATA[<u>SITE:</u><br>Baradine [2BDE]<br>State: NSW<br>ESA: BDNE<br>FAN Size: <br>RCP: RCP-NSWNTH-10.1<br>Agg Site: 2DBB<br>Full Site Handover: 24<br>FAN RFS: 2011-07-31 [Mth 0]<br>Total Racks: 1<br>Site Owner: Telstra<br>]]></description>
			<styleUrl>#black_sq</styleUrl>
			<Point>
				<coordinates>149.066,-30.9492,0</coordinates>
			</Point>
		</Placemark>
		<Placemark>
			<name>8BKR</name>
			<description><![CDATA[<u>SITE:</u><br>Barkly Highway Roadhouse CEV [8BKR]<br>State: NT<br>ESA: BKRH<br>FAN Size: <br>RCP: RCP-NT-7.1<br>Agg Site: 8DRW<br>Full Site Handover: 27<br>FAN RFS: 2011-07-31 [Mth 0]<br>Total Racks: 1<br>Site Owner: NextGen<br>]]></description>
			<styleUrl>#black_sq</styleUrl>
			<Point>
				<coordinates>135.826724,-19.710406,0</coordinates>
			</Point>
		</Placemark>
		<Placemark>
			<name>2BMM</name>
			<description><![CDATA[<u>SITE:</u><br>Barmedman [2BMM]<br>State: NSW<br>ESA: BMMN<br>FAN Size: <br>RCP: RCP-NSWSTH-11.1<br>Agg Site: 2WAG<br>Full Site Handover: 23<br>FAN RFS: 2011-07-31 [Mth 0]<br>Total Racks: 0<br>Site Owner: Telstra<br>]]></description>
			<styleUrl>#black_sq</styleUrl>
			<Point>
				<coordinates>147.386,-34.1442,0</coordinates>
			</Point>
		</Placemark>
		<Placemark>
			<name>6BAR</name>
			<description><![CDATA[<u>SITE:</u><br>Barradale OFRS [6BAR]<br>State: WA<br>ESA: BEOF<br>FAN Size: <br>RCP: RCP-WANTH-16.1<br>Agg Site: 6GLT<br>Full Site Handover: 21<br>FAN RFS: 2011-07-31 [Mth 0]<br>Total Racks: 0<br>Site Owner: Telstra<br>]]></description>
			<styleUrl>#black_sq</styleUrl>
			<Point>
				<coordinates>114.88278,-22.87778,0</coordinates>
			</Point>
		</Placemark>
		<Placemark>
			<name>8BAC</name>
			<description><![CDATA[<u>SITE:</u><br>BARROW CREEK REGENERATOR [8BAC]<br>State: NT<br>ESA: BWQA<br>FAN Size: <br>RCP: RCP-NT-7.1<br>Agg Site: 8DRW<br>Full Site Handover: 27<br>FAN RFS: 2011-07-31 [Mth 0]<br>Total Racks: 1<br>Site Owner: Telstra<br>]]></description>
			<styleUrl>#black_sq</styleUrl>
			<Point>
				<coordinates>133.8411,-21.55055,0</coordinates>
			</Point>
		</Placemark>
		<Placemark>
			<name>9BAR</name>
			<description><![CDATA[<u>SITE:</u><br>Barton Office [9BAR]<br>State: ACT<br>ESA: 9BAR<br>FAN Size: <br>RCP: RCP-NSWSTH-11.2<br>Agg Site: 9CVI<br>Full Site Handover: 0<br>FAN RFS: 2011-07-31 [Mth 0]<br>Total Racks: 0<br>Site Owner: NBNCo<br>]]></description>
			<styleUrl>#black_sq</styleUrl>
			<Point>
				<coordinates>149.133663,-35.310967,0</coordinates>
			</Point>
		</Placemark>
		<Placemark>
			<name>4BAT</name>
			<description><![CDATA[<u>SITE:</u><br>BATAVIA DOWNS RT [4BAT]<br>State: QLD<br>ESA: BATD<br>FAN Size: <br>RCP: RCP-QLDNTH-8.1<br>Agg Site: 4CAI<br>Full Site Handover: 36<br>FAN RFS: 2011-07-31 [Mth 0]<br>Total Racks: 1<br>Site Owner: Telstra<br>]]></description>
			<styleUrl>#black_sq</styleUrl>
			<Point>
				<coordinates>142.69694,-12.68944,0</coordinates>
			</Point>
		</Placemark>
		<Placemark>
			<name>6BAT</name>
			<description><![CDATA[<u>SITE:</u><br>BATEMAN [6BAT]<br>State: WA<br>ESA: BATA<br>FAN Size: <br>RCP: RCP-PER-6.1<br>Agg Site: 6APP<br>Full Site Handover: 80<br>FAN RFS: 2011-07-31 [Mth 0]<br>Total Racks: 1<br>Site Owner: Telstra<br>]]></description>
			<styleUrl>#black_sq</styleUrl>
			<Point>
				<coordinates>115.855,-32.0654,0</coordinates>
			</Point>
		</Placemark>
		<Placemark>
			<name>3BEA</name>
			<description><![CDATA[<u>SITE:</u><br>BEAUMARIS [3BEA]<br>State: VIC<br>ESA: BEAU<br>FAN Size: <br>RCP: RCP-MEL-3.3<br>Agg Site: 3CTA<br>Full Site Handover: 80<br>FAN RFS: 2011-07-31 [Mth 0]<br>Total Racks: 1<br>Site Owner: Telstra<br>]]></description>
			<styleUrl>#black_sq</styleUrl>
			<Point>
				<coordinates>145.035,-37.9794,0</coordinates>
			</Point>
		</Placemark>
		<Placemark>
			<name>2BEL</name>
			<description><![CDATA[<u>SITE:</u><br>Belaringar Regen [2BEL]<br>State: NSW<br>ESA: BGAO<br>FAN Size: <br>RCP: RCP-NSWNTH-10.1<br>Agg Site: 2DBB<br>Full Site Handover: 18<br>FAN RFS: 2011-07-31 [Mth 0]<br>Total Racks: 1<br>Site Owner: Telstra<br>]]></description>
			<styleUrl>#black_sq</styleUrl>
			<Point>
				<coordinates>147.59528,-31.77472,0</coordinates>
			</Point>
		</Placemark>
		<Placemark>
			<name>2BJJ</name>
			<description><![CDATA[<u>SITE:</u><br>Belrose [2BJJ]<br>State: NSW<br>ESA: 22BJ<br>FAN Size: <br>RCP: RCP-SYD-2.1<br>Agg Site: 2FRE<br>Full Site Handover: 80<br>FAN RFS: 2011-07-31 [Mth 0]<br>Total Racks: 3<br>Site Owner: Optus<br>]]></description>
			<styleUrl>#black_sq</styleUrl>
			<Point>
				<coordinates>151.210684,-33.717271,0</coordinates>
			</Point>
		</Placemark>
		<Placemark>
			<name>6BND</name>
			<description><![CDATA[<u>SITE:</u><br>Bendy Well OFRS [6BND]<br>State: WA<br>ESA: BNDW<br>FAN Size: <br>RCP: RCP-WANTH-16.1<br>Agg Site: 6GLT<br>Full Site Handover: 21<br>FAN RFS: 2011-07-31 [Mth 0]<br>Total Racks: 0<br>Site Owner: Telstra<br>]]></description>
			<styleUrl>#black_sq</styleUrl>
			<Point>
				<coordinates>118.32361,-20.69,0</coordinates>
			</Point>
		</Placemark>
		<Placemark>
			<name>6LAD</name>
			<description><![CDATA[<u>SITE:</u><br>BERRANGI CREEK (WAS LOUISA DOWNS) [6LAD]<br>State: WA<br>ESA: LADO<br>FAN Size: <br>RCP: RCP-WANTH-16.1<br>Agg Site: 6GLT<br>Full Site Handover: 27<br>FAN RFS: 2011-07-31 [Mth 0]<br>Total Racks: 1<br>Site Owner: Telstra<br>]]></description>
			<styleUrl>#black_sq</styleUrl>
			<Point>
				<coordinates>126.81527,-18.755,0</coordinates>
			</Point>
		</Placemark>
		<Placemark>
			<name>2BGW</name>
			<description><![CDATA[<u>SITE:</u><br>Berremangra West [2BGW]<br>State: NSW<br>ESA: SPZ3<br>FAN Size: <br>RCP: RCP-NSWSTH-11.1<br>Agg Site: 2WAG<br>Full Site Handover: 24<br>FAN RFS: 2011-07-31 [Mth 0]<br>Total Racks: 1<br>Site Owner: Telstra<br>]]></description>
			<styleUrl>#black_sq</styleUrl>
			<Point>
				<coordinates>148.43111,-34.81944,0</coordinates>
			</Point>
		</Placemark>
		<Placemark>
			<name>3BER</name>
			<description><![CDATA[<u>SITE:</u><br>BERRINGAMA [3BER]<br>State: VIC<br>ESA: BGRA<br>FAN Size: <br>RCP: RCP-VICEST-12.2<br>Agg Site: 2ALB<br>Full Site Handover: 36<br>FAN RFS: 2011-07-31 [Mth 0]<br>Total Racks: 1<br>Site Owner: Telstra<br>]]></description>
			<styleUrl>#black_sq</styleUrl>
			<Point>
				<coordinates>147.647,-36.2377,0</coordinates>
			</Point>
		</Placemark>
		<Placemark>
			<name>4BGD</name>
			<description><![CDATA[<u>SITE:</u><br>Biggenden [4BGD]<br>State: QLD<br>ESA: BIGN<br>FAN Size: <br>RCP: RCP-QLDSTH-9.1<br>Agg Site: 4BBE<br>Full Site Handover: 21<br>FAN RFS: 2011-07-31 [Mth 0]<br>Total Racks: 1<br>Site Owner: Telstra<br>]]></description>
			<styleUrl>#black_sq</styleUrl>
			<Point>
				<coordinates>152.046,-25.5105,0</coordinates>
			</Point>
		</Placemark>
		<Placemark>
			<name>6BLB</name>
			<description><![CDATA[<u>SITE:</u><br>BILLABONG RCM [6BLB]<br>State: WA<br>ESA: BGOF<br>FAN Size: <br>RCP: RCP-WANTH-16.1<br>Agg Site: 6GLT<br>Full Site Handover: 21<br>FAN RFS: 2011-07-31 [Mth 0]<br>Total Racks: 1<br>Site Owner: Telstra<br>]]></description>
			<styleUrl>#black_sq</styleUrl>
			<Point>
				<coordinates>114.61944,-26.83167,0</coordinates>
			</Point>
		</Placemark>
		<Placemark>
			<name>6BIN</name>
			<description><![CDATA[<u>SITE:</u><br>Bindoon [6BIN]<br>State: WA<br>ESA: BIND<br>FAN Size: <br>RCP: RCP-WANTH-16.1<br>Agg Site: 6PEB<br>Full Site Handover: 20<br>FAN RFS: 2011-07-31 [Mth 0]<br>Total Racks: 1<br>Site Owner: Telstra<br>]]></description>
			<styleUrl>#black_sq</styleUrl>
			<Point>
				<coordinates>116.095,-31.3827,0</coordinates>
			</Point>
		</Placemark>
		<Placemark>
			<name>2BNN</name>
			<description><![CDATA[<u>SITE:</u><br>Binnia [2BNN]<br>State: NSW<br>ESA: BNNA<br>FAN Size: <br>RCP: RCP-NSWNTH-10.1<br>Agg Site: 2DBB<br>Full Site Handover: 24<br>FAN RFS: 2011-07-31 [Mth 0]<br>Total Racks: 1<br>Site Owner: Telstra<br>]]></description>
			<styleUrl>#black_sq</styleUrl>
			<Point>
				<coordinates>149.741,-31.6658,0</coordinates>
			</Point>
		</Placemark>
		<Placemark>
			<name>2BTT</name>
			<description><![CDATA[<u>SITE:</u><br>Blacktown [2BTT]<br>State: NSW<br>ESA: 22BT<br>FAN Size: <br>RCP: RCP-SYD-2.1<br>Agg Site: 2BLK<br>Full Site Handover: 80<br>FAN RFS: 2011-07-31 [Mth 0]<br>Total Racks: 4<br>Site Owner: Optus<br>]]></description>
			<styleUrl>#black_sq</styleUrl>
			<Point>
				<coordinates>150.909023,-33.761856,0</coordinates>
			</Point>
		</Placemark>
		<Placemark>
			<name>4BKT</name>
			<description><![CDATA[<u>SITE:</u><br>Blackwater CEV [4BKT]<br>State: QLD<br>ESA: BKWT<br>FAN Size: <br>RCP: RCP-QLDSTH-9.2<br>Agg Site: 4ROT<br>Full Site Handover: 28<br>FAN RFS: 2011-07-31 [Mth 0]<br>Total Racks: 1<br>Site Owner: NextGen<br>]]></description>
			<styleUrl>#black_sq</styleUrl>
			<Point>
				<coordinates>148.874593,-23.680906,0</coordinates>
			</Point>
		</Placemark>
		<Placemark>
			<name>4BLR</name>
			<description><![CDATA[<u>SITE:</u><br>Blair Athol RT [4BLR]<br>State: QLD<br>ESA: BLAH<br>FAN Size: <br>RCP: RCP-QLDSTH-9.1<br>Agg Site: 4ROT<br>Full Site Handover: 33<br>FAN RFS: 2011-07-31 [Mth 0]<br>Total Racks: 1<br>Site Owner: Telstra<br>]]></description>
			<styleUrl>#black_sq</styleUrl>
			<Point>
				<coordinates>139.99138,-22.57694,0</coordinates>
			</Point>
		</Placemark>
		<Placemark>
			<name>6BLI</name>
			<description><![CDATA[<u>SITE:</u><br>BLINA OFRS [6BLI]<br>State: WA<br>ESA: BLIO<br>FAN Size: <br>RCP: RCP-WANTH-16.1<br>Agg Site: 6GLT<br>Full Site Handover: 27<br>FAN RFS: 2011-07-31 [Mth 0]<br>Total Racks: 1<br>Site Owner: Telstra<br>]]></description>
			<styleUrl>#black_sq</styleUrl>
			<Point>
				<coordinates>124.57638,-17.8425,0</coordinates>
			</Point>
		</Placemark>
		<Placemark>
			<name>4BLO</name>
			<description><![CDATA[<u>SITE:</u><br>Bloomsbury [4BLO]<br>State: QLD<br>ESA: BLBY<br>FAN Size: <br>RCP: RCP-QLDNTH-8.1<br>Agg Site: 4MKY<br>Full Site Handover: 15<br>FAN RFS: 2011-07-31 [Mth 0]<br>Total Racks: 1<br>Site Owner: Telstra<br>]]></description>
			<styleUrl>#black_sq</styleUrl>
			<Point>
				<coordinates>148.597,-20.7048,0</coordinates>
			</Point>
		</Placemark>
		<Placemark>
			<name>8BBS</name>
			<description><![CDATA[<u>SITE:</u><br>Blue Bush CEV [8BBS]<br>State: NT<br>ESA: BBSH<br>FAN Size: <br>RCP: RCP-NT-7.1<br>Agg Site: 8DRW<br>Full Site Handover: 27<br>FAN RFS: 2011-07-31 [Mth 0]<br>Total Racks: 1<br>Site Owner: NextGen<br>]]></description>
			<styleUrl>#black_sq</styleUrl>
			<Point>
				<coordinates>133.674709,-18.885929,0</coordinates>
			</Point>
		</Placemark>
		<Placemark>
			<name>5BLY</name>
			<description><![CDATA[<u>SITE:</u><br>Blyth [5BLY]<br>State: SA<br>ESA: BLYH<br>FAN Size: <br>RCP: RCP-SACTRY-14.1<br>Agg Site: 5PTA<br>Full Site Handover: 33<br>FAN RFS: 2011-07-31 [Mth 0]<br>Total Racks: 1<br>Site Owner: Telstra<br>]]></description>
			<styleUrl>#black_sq</styleUrl>
			<Point>
				<coordinates>138.49,-33.8449,0</coordinates>
			</Point>
		</Placemark>
		<Placemark>
			<name>7BOU</name>
			<description><![CDATA[<u>SITE:</u><br>Boat Harbour [7BOU]<br>State: TAS<br>ESA: BOUR<br>FAN Size: <br>RCP: RCP-TASNTH-4.1<br>Agg Site: 7LAU<br>Full Site Handover: 12<br>FAN RFS: 2011-07-31 [Mth 0]<br>Total Racks: 1<br>Site Owner: Telstra<br>]]></description>
			<styleUrl>#black_sq</styleUrl>
			<Point>
				<coordinates>145.624,-40.9504,0</coordinates>
			</Point>
		</Placemark>
		<Placemark>
			<name>4BGT</name>
			<description><![CDATA[<u>SITE:</u><br>Bogantungan CEV [4BGT]<br>State: QLD<br>ESA: 4BGT<br>FAN Size: <br>RCP: RCP-QLDSTH-9.1<br>Agg Site: 4TOB<br>Full Site Handover: 33<br>FAN RFS: 2011-07-31 [Mth 0]<br>Total Racks: 1<br>Site Owner: NextGen<br>]]></description>
			<styleUrl>#black_sq</styleUrl>
			<Point>
				<coordinates>147.2909288355,-23.6477479491,0</coordinates>
			</Point>
		</Placemark>
		<Placemark>
			<name>6BAD</name>
			<description><![CDATA[<u>SITE:</u><br>Bohemia Downs OFRS [6BAD]<br>State: WA<br>ESA: BADO<br>FAN Size: <br>RCP: RCP-WANTH-16.1<br>Agg Site: 6GLT<br>Full Site Handover: 27<br>FAN RFS: 2011-07-31 [Mth 0]<br>Total Racks: 1<br>Site Owner: Telstra<br>]]></description>
			<styleUrl>#black_sq</styleUrl>
			<Point>
				<coordinates>126.28083,-18.76,0</coordinates>
			</Point>
		</Placemark>
		<Placemark>
			<name>2BOK</name>
			<description><![CDATA[<u>SITE:</u><br>Bokhara [2BOK]<br>State: NSW<br>ESA: BQBF<br>FAN Size: <br>RCP: RCP-NSWNTH-10.1<br>Agg Site: 2DBB<br>Full Site Handover: 18<br>FAN RFS: 2011-07-31 [Mth 0]<br>Total Racks: 1<br>Site Owner: Telstra<br>]]></description>
			<styleUrl>#black_sq</styleUrl>
			<Point>
				<coordinates>147.13847,-29.59451,0</coordinates>
			</Point>
		</Placemark>
		<Placemark>
			<name>5BOB</name>
			<description><![CDATA[<u>SITE:</u><br>BON BON [5BOB]<br>State: SA<br>ESA: BOBO<br>FAN Size: <br>RCP: RCP-SACTRY-14.1<br>Agg Site: 5PTA<br>Full Site Handover: 27<br>FAN RFS: 2011-07-31 [Mth 0]<br>Total Racks: 1<br>Site Owner: Telstra<br>]]></description>
			<styleUrl>#black_sq</styleUrl>
			<Point>
				<coordinates>135.3647,-30.54070000000001,0</coordinates>
			</Point>
		</Placemark>
		<Placemark>
			<name>2BOD</name>
			<description><![CDATA[<u>SITE:</u><br>BONDI [2BOD]<br>State: NSW<br>ESA: BOND<br>FAN Size: <br>RCP: RCP-SYD-2.2<br>Agg Site: 2EDG<br>Full Site Handover: 80<br>FAN RFS: 2011-07-31 [Mth 0]<br>Total Racks: 1<br>Site Owner: Telstra<br>]]></description>
			<styleUrl>#black_sq</styleUrl>
			<Point>
				<coordinates>151.272,-33.8885,0</coordinates>
			</Point>
		</Placemark>
		<Placemark>
			<name>6BOA</name>
			<description><![CDATA[<u>SITE:</u><br>BOOANYA OFRS  [6BOA]<br>State: WA<br>ESA: BOAY<br>FAN Size: <br>RCP: RCP-WASTH-15.1<br>Agg Site: 6KAT<br>Full Site Handover: 28<br>FAN RFS: 2011-07-31 [Mth 0]<br>Total Racks: 1<br>Site Owner: Telstra<br>]]></description>
			<styleUrl>#black_sq</styleUrl>
			<Point>
				<coordinates>123.55583,-32.765,0</coordinates>
			</Point>
		</Placemark>
		<Placemark>
			<name>6BOD</name>
			<description><![CDATA[<u>SITE:</u><br>BOODALLIA OFRS [6BOD]<br>State: WA<br>ESA: BODF<br>FAN Size: <br>RCP: RCP-WANTH-16.1<br>Agg Site: 6GLT<br>Full Site Handover: 21<br>FAN RFS: 2011-07-31 [Mth 0]<br>Total Racks: 1<br>Site Owner: Telstra<br>]]></description>
			<styleUrl>#black_sq</styleUrl>
			<Point>
				<coordinates>113.89917,-25.24056,0</coordinates>
			</Point>
		</Placemark>
		<Placemark>
			<name>5BOO</name>
			<description><![CDATA[<u>SITE:</u><br>BOOKABIE REP [5BOO]<br>State: SA<br>ESA: BKOF<br>FAN Size: <br>RCP: RCP-SACTRY-14.1<br>Agg Site: 5PTA<br>Full Site Handover: 28<br>FAN RFS: 2011-07-31 [Mth 0]<br>Total Racks: 1<br>Site Owner: Telstra<br>]]></description>
			<styleUrl>#black_sq</styleUrl>
			<Point>
				<coordinates>132.625,-31.83833,0</coordinates>
			</Point>
		</Placemark>
		<Placemark>
			<name>5BOS</name>
			<description><![CDATA[<u>SITE:</u><br>Bookaloo Station OFRS [5BOS]<br>State: SA<br>ESA: BKDO<br>FAN Size: <br>RCP: RCP-SACTRY-14.1<br>Agg Site: 5PTA<br>Full Site Handover: 27<br>FAN RFS: 2011-07-31 [Mth 0]<br>Total Racks: 1<br>Site Owner: Telstra<br>]]></description>
			<styleUrl>#black_sq</styleUrl>
			<Point>
				<coordinates>137.3163,-31.81555,0</coordinates>
			</Point>
		</Placemark>
		<Placemark>
			<name>6BOO</name>
			<description><![CDATA[<u>SITE:</u><br>BOORABBIN REGEN [6BOO]<br>State: WA<br>ESA: BOIN<br>FAN Size: <br>RCP: RCP-WANTH-16.1<br>Agg Site: 6KAT<br>Full Site Handover: 24<br>FAN RFS: 2011-07-31 [Mth 0]<br>Total Racks: 1<br>Site Owner: Telstra<br>]]></description>
			<styleUrl>#black_sq</styleUrl>
			<Point>
				<coordinates>120.03472,-31.21156,0</coordinates>
			</Point>
		</Placemark>
		<Placemark>
			<name>6BOR</name>
			<description><![CDATA[<u>SITE:</u><br>BOORINIA  OFRS  [6BOR]<br>State: WA<br>ESA: BORI<br>FAN Size: <br>RCP: RCP-WASTH-15.1<br>Agg Site: 6KAT<br>Full Site Handover: 28<br>FAN RFS: 2011-07-31 [Mth 0]<br>Total Racks: 1<br>Site Owner: Telstra<br>]]></description>
			<styleUrl>#black_sq</styleUrl>
			<Point>
				<coordinates>123.30611,-33.11444,0</coordinates>
			</Point>
		</Placemark>
		<Placemark>
			<name>2BRB</name>
			<description><![CDATA[<u>SITE:</u><br>BOOROORBAN [2BRB]<br>State: NSW<br>ESA: BBAN<br>FAN Size: <br>RCP: RCP-NSWSTH-11.2<br>Agg Site: 2DBB<br>Full Site Handover: 30<br>FAN RFS: 2011-07-31 [Mth 0]<br>Total Racks: 1<br>Site Owner: Telstra<br>]]></description>
			<styleUrl>#black_sq</styleUrl>
			<Point>
				<coordinates>144.75611,-34.92805,0</coordinates>
			</Point>
		</Placemark>
		<Placemark>
			<name>6BTH</name>
			<description><![CDATA[<u>SITE:</u><br>Boothendara CEV [6BTH]<br>State: WA<br>ESA: BTHD<br>FAN Size: <br>RCP: RCP-WANTH-16.1<br>Agg Site: 6GLT<br>Full Site Handover: 36<br>FAN RFS: 2011-07-31 [Mth 0]<br>Total Racks: 1<br>Site Owner: NextGen<br>]]></description>
			<styleUrl>#black_sq</styleUrl>
			<Point>
				<coordinates>115.475537,-30.291219,0</coordinates>
			</Point>
		</Placemark>
		<Placemark>
			<name>2BRW</name>
			<description><![CDATA[<u>SITE:</u><br>Borambola West [2BRW]<br>State: NSW<br>ESA: SPX2<br>FAN Size: <br>RCP: RCP-NSWSTH-11.2<br>Agg Site: 2WAG<br>Full Site Handover: 23<br>FAN RFS: 2011-07-31 [Mth 0]<br>Total Racks: 1<br>Site Owner: Telstra<br>]]></description>
			<styleUrl>#black_sq</styleUrl>
			<Point>
				<coordinates>147.65861,-35.175,0</coordinates>
			</Point>
		</Placemark>
		<Placemark>
			<name>5BOR</name>
			<description><![CDATA[<u>SITE:</u><br>Border Village Repeater 2 [5BOR]<br>State: SA<br>ESA: BVOF<br>FAN Size: <br>RCP: RCP-WASTH-15.1<br>Agg Site: 5PTA<br>Full Site Handover: 28<br>FAN RFS: 2011-07-31 [Mth 0]<br>Total Racks: 1<br>Site Owner: Telstra<br>]]></description>
			<styleUrl>#black_sq</styleUrl>
			<Point>
				<coordinates>129.0036,-31.63916,0</coordinates>
			</Point>
		</Placemark>
		<Placemark>
			<name>4BOR</name>
			<description><![CDATA[<u>SITE:</u><br>BOREEN POINT TRANSMISSION [4BOR]<br>State: QLD<br>ESA: BORE<br>FAN Size: <br>RCP: RCP-QLDSTH-9.2<br>Agg Site: 4NBR<br>Full Site Handover: 31<br>FAN RFS: 2011-07-31 [Mth 0]<br>Total Racks: 0<br>Site Owner: Telstra<br>]]></description>
			<styleUrl>#black_sq</styleUrl>
			<Point>
				<coordinates>152.989,-26.2852,0</coordinates>
			</Point>
		</Placemark>
		<Placemark>
			<name>3BOR</name>
			<description><![CDATA[<u>SITE:</u><br>BORONIA [3BOR]<br>State: VIC<br>ESA: BONA<br>FAN Size: <br>RCP: RCP-MEL-3.3<br>Agg Site: 3BAY<br>Full Site Handover: 80<br>FAN RFS: 2011-07-31 [Mth 0]<br>Total Racks: 1<br>Site Owner: Telstra<br>]]></description>
			<styleUrl>#black_sq</styleUrl>
			<Point>
				<coordinates>145.288,-37.8634,0</coordinates>
			</Point>
		</Placemark>
		<Placemark>
			<name>4BOU</name>
			<description><![CDATA[<u>SITE:</u><br>Boulia [4BOU]<br>State: QLD<br>ESA: BOUL<br>FAN Size: <br>RCP: RCP-QLDSTH-9.1<br>Agg Site: 4ROT<br>Full Site Handover: 33<br>FAN RFS: 2011-07-31 [Mth 0]<br>Total Racks: 1<br>Site Owner: Telstra<br>]]></description>
			<styleUrl>#black_sq</styleUrl>
			<Point>
				<coordinates>139.907,-22.9091,0</coordinates>
			</Point>
		</Placemark>
		<Placemark>
			<name>2BKS</name>
			<description><![CDATA[<u>SITE:</u><br>Bourke Satellite Gateway [2BKS]<br>State: NSW<br>ESA: 2BKS<br>FAN Size: <br>RCP: RCP-NSWNTH-10.1<br>Agg Site: 2DBB<br>Full Site Handover: 25<br>FAN RFS: 2011-07-31 [Mth 0]<br>Total Racks: 0<br>Site Owner: NBNCo<br>]]></description>
			<styleUrl>#black_sq</styleUrl>
			<Point>
				<coordinates>145.937529,-30.025577,0</coordinates>
			</Point>
		</Placemark>
		<Placemark>
			<name>6BOW</name>
			<description><![CDATA[<u>SITE:</u><br>BOW BRIDGE TRANSMISSION [6BOW]<br>State: WA<br>ESA: BOWB<br>FAN Size: <br>RCP: RCP-WASTH-15.1<br>Agg Site: 6KAT<br>Full Site Handover: 25<br>FAN RFS: 2011-07-31 [Mth 0]<br>Total Racks: 1<br>Site Owner: Telstra<br>]]></description>
			<styleUrl>#black_sq</styleUrl>
			<Point>
				<coordinates>116.978,-34.9671,0</coordinates>
			</Point>
		</Placemark>
		<Placemark>
			<name>2BOA</name>
			<description><![CDATA[<u>SITE:</u><br>BOWNA TRANSMISSION [2BOA]<br>State: NSW<br>ESA: BOWN<br>FAN Size: <br>RCP: RCP-NSWSTH-11.2<br>Agg Site: 2ALB<br>Full Site Handover: 30<br>FAN RFS: 2011-07-31 [Mth 0]<br>Total Racks: 1<br>Site Owner: Telstra<br>]]></description>
			<styleUrl>#black_sq</styleUrl>
			<Point>
				<coordinates>147.119,-35.948,0</coordinates>
			</Point>
		</Placemark>
		<Placemark>
			<name>3KWW</name>
			<description><![CDATA[<u>SITE:</u><br>Braeside [3KWW]<br>State: VIC<br>ESA: 33KW<br>FAN Size: <br>RCP: RCP-MEL-3.3<br>Agg Site: 3CTA<br>Full Site Handover: 80<br>FAN RFS: 2011-07-31 [Mth 0]<br>Total Racks: 1<br>Site Owner: Optus<br>]]></description>
			<styleUrl>#black_sq</styleUrl>
			<Point>
				<coordinates>145.112366,-38.007829,0</coordinates>
			</Point>
		</Placemark>
		<Placemark>
			<name>2BWN</name>
			<description><![CDATA[<u>SITE:</u><br>Brewarrina [2BWN]<br>State: NSW<br>ESA: BRNA<br>FAN Size: <br>RCP: RCP-NSWNTH-10.1<br>Agg Site: 2DBB<br>Full Site Handover: 18<br>FAN RFS: 2011-07-31 [Mth 0]<br>Total Racks: 1<br>Site Owner: Telstra<br>]]></description>
			<styleUrl>#black_sq</styleUrl>
			<Point>
				<coordinates>146.859,-29.9622,0</coordinates>
			</Point>
		</Placemark>
		<Placemark>
			<name>3BRI</name>
			<description><![CDATA[<u>SITE:</u><br>Briagolong [3BRI]<br>State: VIC<br>ESA: BRIA<br>FAN Size: <br>RCP: RCP-VICEST-12.2<br>Agg Site: 3TAG<br>Full Site Handover: 102<br>FAN RFS: 2011-07-31 [Mth 0]<br>Total Racks: 2<br>Site Owner: Telstra<br>]]></description>
			<styleUrl>#black_sq</styleUrl>
			<Point>
				<coordinates>147.068,-37.8428,0</coordinates>
			</Point>
		</Placemark>
		<Placemark>
			<name>4BRL</name>
			<description><![CDATA[<u>SITE:</u><br>Bringalily DCS20 QPWTHE9 [4BRL]<br>State: QLD<br>ESA: BRLI<br>FAN Size: <br>RCP: RCP-QLDSTH-9.2<br>Agg Site: 4TOB<br>Full Site Handover: 23<br>FAN RFS: 2011-07-31 [Mth 0]<br>Total Racks: 1<br>Site Owner: Telstra<br>]]></description>
			<styleUrl>#black_sq</styleUrl>
			<Point>
				<coordinates>151.197,-28.0825,0</coordinates>
			</Point>
		</Placemark>
		<Placemark>
			<name>2BGL</name>
			<description><![CDATA[<u>SITE:</u><br>Bringelly West [2BGL]<br>State: NSW<br>ESA: BRGY<br>FAN Size: <br>RCP: RCP-SYD-2.3<br>Agg Site: 2SYB<br>Full Site Handover: 80<br>FAN RFS: 2011-07-31 [Mth 0]<br>Total Racks: 0<br>Site Owner: Telstra<br>]]></description>
			<styleUrl>#black_sq</styleUrl>
			<Point>
				<coordinates>150.731,-33.9133,0</coordinates>
			</Point>
		</Placemark>
		<Placemark>
			<name>3BRO</name>
			<description><![CDATA[<u>SITE:</u><br>Broadmeadows [3BRO]<br>State: VIC<br>ESA: O3PA<br>FAN Size: <br>RCP: RCP-MEL-3.1<br>Agg Site: 3TMN<br>Full Site Handover: 80<br>FAN RFS: 2011-07-31 [Mth 0]<br>Total Racks: 1<br>Site Owner: Optus<br>]]></description>
			<styleUrl>#black_sq</styleUrl>
			<Point>
				<coordinates>144.917226,-37.687972,0</coordinates>
			</Point>
		</Placemark>
		<Placemark>
			<name>2BHS</name>
			<description><![CDATA[<u>SITE:</u><br>Broken Hill Satellite Gateway [2BHS]<br>State: NSW<br>ESA: 2BHS<br>FAN Size: <br>RCP: RCP-NSWNTH-10.2<br>Agg Site: 2DBB<br>Full Site Handover: 26<br>FAN RFS: 2011-07-31 [Mth 0]<br>Total Racks: 0<br>Site Owner: NBNCo<br>]]></description>
			<styleUrl>#black_sq</styleUrl>
			<Point>
				<coordinates>141.541508,-31.91380600000001,0</coordinates>
			</Point>
		</Placemark>
		<Placemark>
			<name>3BKL</name>
			<description><![CDATA[<u>SITE:</u><br>BROOKLYN [3BKL]<br>State: VIC<br>ESA: BKLN<br>FAN Size: <br>RCP: RCP-MEL-3.1<br>Agg Site: 3FSR<br>Full Site Handover: 80<br>FAN RFS: 2011-07-31 [Mth 0]<br>Total Racks: 1<br>Site Owner: Telstra<br>]]></description>
			<styleUrl>#black_sq</styleUrl>
			<Point>
				<coordinates>144.869,-37.8117,0</coordinates>
			</Point>
		</Placemark>
		<Placemark>
			<name>8BUB</name>
			<description><![CDATA[<u>SITE:</u><br>Buk Buk OFRS 8349 [8BUB]<br>State: NT<br>ESA: BUKK<br>FAN Size: <br>RCP: RCP-NT-7.1<br>Agg Site: 8DRW<br>Full Site Handover: 34<br>FAN RFS: 2011-07-31 [Mth 0]<br>Total Racks: 1<br>Site Owner: Telstra<br>]]></description>
			<styleUrl>#black_sq</styleUrl>
			<Point>
				<coordinates>132.433,-12.70944,0</coordinates>
			</Point>
		</Placemark>
		<Placemark>
			<name>4BMB</name>
			<description><![CDATA[<u>SITE:</u><br>BULIMBA [4BMB]<br>State: QLD<br>ESA: BMBA<br>FAN Size: <br>RCP: RCP-BRS-1.1<br>Agg Site: 4WOB<br>Full Site Handover: 80<br>FAN RFS: 2011-07-31 [Mth 0]<br>Total Racks: 1<br>Site Owner: Telstra<br>]]></description>
			<styleUrl>#black_sq</styleUrl>
			<Point>
				<coordinates>153.06,-27.4727,0</coordinates>
			</Point>
		</Placemark>
		<Placemark>
			<name>2BUT</name>
			<description><![CDATA[<u>SITE:</u><br>Bulla Tank Transmission [2BUT]<br>State: NSW<br>ESA: BLTK<br>FAN Size: <br>RCP: RCP-NSWNTH-10.1<br>Agg Site: 2DBB<br>Full Site Handover: 34<br>FAN RFS: 2011-07-31 [Mth 0]<br>Total Racks: 1<br>Site Owner: Telstra<br>]]></description>
			<styleUrl>#black_sq</styleUrl>
			<Point>
				<coordinates>144.66194,-31.57222,0</coordinates>
			</Point>
		</Placemark>
		<Placemark>
			<name>3BUL</name>
			<description><![CDATA[<u>SITE:</u><br>BULLEEN [3BUL]<br>State: VIC<br>ESA: BUEN<br>FAN Size: <br>RCP: RCP-MEL-3.2<br>Agg Site: 3NBA<br>Full Site Handover: 80<br>FAN RFS: 2011-07-31 [Mth 0]<br>Total Racks: 1<br>Site Owner: Telstra<br>]]></description>
			<styleUrl>#black_sq</styleUrl>
			<Point>
				<coordinates>145.099,-37.7684,0</coordinates>
			</Point>
		</Placemark>
		<Placemark>
			<name>6BUL</name>
			<description><![CDATA[<u>SITE:</u><br>BULLOO NEWMAN OFRS [6BUL]<br>State: WA<br>ESA: BLOO<br>FAN Size: <br>RCP: RCP-WANTH-16.1<br>Agg Site: 6GLT<br>Full Site Handover: 21<br>FAN RFS: 2011-07-31 [Mth 0]<br>Total Racks: 0<br>Site Owner: Telstra<br>]]></description>
			<styleUrl>#black_sq</styleUrl>
			<Point>
				<coordinates>119.70389,-24.31722,0</coordinates>
			</Point>
		</Placemark>
		<Placemark>
			<name>8BUO</name>
			<description><![CDATA[<u>SITE:</u><br>Butler OFRS [8BUO]<br>State: NT<br>ESA: BUTO<br>FAN Size: <br>RCP: RCP-NT-7.1<br>Agg Site: 8DRW<br>Full Site Handover: 27<br>FAN RFS: 2011-07-31 [Mth 0]<br>Total Racks: 1<br>Site Owner: Telstra<br>]]></description>
			<styleUrl>#black_sq</styleUrl>
			<Point>
				<coordinates>129.07,-16.02972,0</coordinates>
			</Point>
		</Placemark>
		<Placemark>
			<name>2BYR</name>
			<description><![CDATA[<u>SITE:</u><br>Byrock [2BYR]<br>State: NSW<br>ESA: BRCK<br>FAN Size: <br>RCP: RCP-NSWNTH-10.1<br>Agg Site: 2DBB<br>Full Site Handover: 18<br>FAN RFS: 2011-07-31 [Mth 0]<br>Total Racks: 1<br>Site Owner: Telstra<br>]]></description>
			<styleUrl>#black_sq</styleUrl>
			<Point>
				<coordinates>146.40278,-30.66056,0</coordinates>
			</Point>
		</Placemark>
		<Placemark>
			<name>4CAD</name>
			<description><![CDATA[<u>SITE:</u><br>Cadell Creek OFRS [4CAD]<br>State: QLD<br>ESA: CELV<br>FAN Size: <br>RCP: RCP-QLDSTH-9.1<br>Agg Site: 4ROT<br>Full Site Handover: 33<br>FAN RFS: 2011-07-31 [Mth 0]<br>Total Racks: 1<br>Site Owner: Telstra<br>]]></description>
			<styleUrl>#black_sq</styleUrl>
			<Point>
				<coordinates>141.91694,-22.28361,0</coordinates>
			</Point>
		</Placemark>
		<Placemark>
			<name>6CAT</name>
			<description><![CDATA[<u>SITE:</u><br>CADJEBUT OFRS [6CAT]<br>State: WA<br>ESA: CATO<br>FAN Size: <br>RCP: RCP-WANTH-16.1<br>Agg Site: 6GLT<br>Full Site Handover: 27<br>FAN RFS: 2011-07-31 [Mth 0]<br>Total Racks: 1<br>Site Owner: Telstra<br>]]></description>
			<styleUrl>#black_sq</styleUrl>
			<Point>
				<coordinates>125.78666,-18.62388,0</coordinates>
			</Point>
		</Placemark>
		<Placemark>
			<name>6CFN</name>
			<description><![CDATA[<u>SITE:</u><br>CAIGUNA REP [6CFN]<br>State: WA<br>ESA: CFNA<br>FAN Size: <br>RCP: RCP-WASTH-15.1<br>Agg Site: 6KAT<br>Full Site Handover: 28<br>FAN RFS: 2011-07-31 [Mth 0]<br>Total Racks: 1<br>Site Owner: Telstra<br>]]></description>
			<styleUrl>#black_sq</styleUrl>
			<Point>
				<coordinates>125.49583,-32.26194,0</coordinates>
			</Point>
		</Placemark>
		<Placemark>
			<name>2CBL</name>
			<description><![CDATA[<u>SITE:</u><br>Cainbil [2CBL]<br>State: NSW<br>ESA: CAIN<br>FAN Size: <br>RCP: RCP-NSWNTH-10.1<br>Agg Site: 2DBB<br>Full Site Handover: 24<br>FAN RFS: 2011-07-31 [Mth 0]<br>Total Racks: 1<br>Site Owner: Telstra<br>]]></description>
			<styleUrl>#black_sq</styleUrl>
			<Point>
				<coordinates>149.706,-32.0657,0</coordinates>
			</Point>
		</Placemark>
		<Placemark>
			<name>3CML</name>
			<description><![CDATA[<u>SITE:</u><br>CAMBERWELL [3CML]<br>State: VIC<br>ESA: CMLL<br>FAN Size: <br>RCP: RCP-MEL-3.2<br>Agg Site: 3HAW<br>Full Site Handover: 80<br>FAN RFS: 2011-07-31 [Mth 0]<br>Total Racks: 1<br>Site Owner: Telstra<br>]]></description>
			<styleUrl>#black_sq</styleUrl>
			<Point>
				<coordinates>145.051,-37.8266,0</coordinates>
			</Point>
		</Placemark>
		<Placemark>
			<name>4CMW</name>
			<description><![CDATA[<u>SITE:</u><br>Camooweal CEV [4CMW]<br>State: QLD<br>ESA: CMWL<br>FAN Size: <br>RCP: RCP-QLDSTH-9.1<br>Agg Site: 4TOB<br>Full Site Handover: 27<br>FAN RFS: 2011-07-31 [Mth 0]<br>Total Racks: 1<br>Site Owner: NextGen<br>]]></description>
			<styleUrl>#black_sq</styleUrl>
			<Point>
				<coordinates>138.118275,-19.922114,0</coordinates>
			</Point>
		</Placemark>
		<Placemark>
			<name>8CSO</name>
			<description><![CDATA[<u>SITE:</u><br>Campbell Springs OFRS [8CSO]<br>State: NT<br>ESA: CMBO<br>FAN Size: <br>RCP: RCP-NT-7.1<br>Agg Site: 8DRW<br>Full Site Handover: 27<br>FAN RFS: 2011-07-31 [Mth 0]<br>Total Racks: 1<br>Site Owner: Telstra<br>]]></description>
			<styleUrl>#black_sq</styleUrl>
			<Point>
				<coordinates>131.3541,-15.49833,0</coordinates>
			</Point>
		</Placemark>
		<Placemark>
			<name>3CAR</name>
			<description><![CDATA[<u>SITE:</u><br>Cann River [3CAR]<br>State: VIC<br>ESA: CANR<br>FAN Size: <br>RCP: RCP-VICEST-12.2<br>Agg Site: 3TAG<br>Full Site Handover: 32<br>FAN RFS: 2011-07-31 [Mth 0]<br>Total Racks: 2<br>Site Owner: Telstra<br>]]></description>
			<styleUrl>#black_sq</styleUrl>
			<Point>
				<coordinates>149.152,-37.5662,0</coordinates>
			</Point>
		</Placemark>
		<Placemark>
			<name>4CNH</name>
			<description><![CDATA[<u>SITE:</u><br>Cannon Hill Office [4CNH]<br>State: QLD<br>ESA: 4CNH<br>FAN Size: <br>RCP: RCP-BRS-1.1<br>Agg Site: 4CPH<br>Full Site Handover: 0<br>FAN RFS: 2011-07-31 [Mth 0]<br>Total Racks: 0<br>Site Owner: NBNCo<br>]]></description>
			<styleUrl>#black_sq</styleUrl>
			<Point>
				<coordinates>153.0930356,-27.4664053,0</coordinates>
			</Point>
		</Placemark>
		<Placemark>
			<name>6CBO</name>
			<description><![CDATA[<u>SITE:</u><br>CAPE VILLARET OFRS [6CBO]<br>State: WA<br>ESA: CBOF<br>FAN Size: <br>RCP: RCP-WANTH-16.1<br>Agg Site: 6GLT<br>Full Site Handover: 27<br>FAN RFS: 2011-07-31 [Mth 0]<br>Total Racks: 0<br>Site Owner: Telstra<br>]]></description>
			<styleUrl>#black_sq</styleUrl>
			<Point>
				<coordinates>122.12083,-18.415,0</coordinates>
			</Point>
		</Placemark>
		<Placemark>
			<name>2CPT</name>
			<description><![CDATA[<u>SITE:</u><br>Capertee [2CPT]<br>State: NSW<br>ESA: CPEE<br>FAN Size: <br>RCP: RCP-NSWNTH-10.2<br>Agg Site: 2DBB<br>Full Site Handover: 24<br>FAN RFS: 2011-07-31 [Mth 0]<br>Total Racks: 0<br>Site Owner: Telstra<br>]]></description>
			<styleUrl>#black_sq</styleUrl>
			<Point>
				<coordinates>149.985,-33.1468,0</coordinates>
			</Point>
		</Placemark>
		<Placemark>
			<name>2CRB</name>
			<description><![CDATA[<u>SITE:</u><br>Carabost [2CRB]<br>State: NSW<br>ESA: CBST<br>FAN Size: <br>RCP: RCP-NSWSTH-11.2<br>Agg Site: 2WAG<br>Full Site Handover: 23<br>FAN RFS: 2011-07-31 [Mth 0]<br>Total Racks: 1<br>Site Owner: Telstra<br>]]></description>
			<styleUrl>#black_sq</styleUrl>
			<Point>
				<coordinates>147.729,-35.6017,0</coordinates>
			</Point>
		</Placemark>
		<Placemark>
			<name>6CDA</name>
			<description><![CDATA[<u>SITE:</u><br>Cardabia OFRS [6CDA]<br>State: WA<br>ESA: CDAB<br>FAN Size: <br>RCP: RCP-WANTH-16.1<br>Agg Site: 6GLT<br>Full Site Handover: 21<br>FAN RFS: 2011-07-31 [Mth 0]<br>Total Racks: 1<br>Site Owner: Telstra<br>]]></description>
			<styleUrl>#black_sq</styleUrl>
			<Point>
				<coordinates>113.92444,-22.89194,0</coordinates>
			</Point>
		</Placemark>
		<Placemark>
			<name>2OXX</name>
			<description><![CDATA[<u>SITE:</u><br>Carlingford [2OXX]<br>State: NSW<br>ESA: 22OX<br>FAN Size: <br>RCP: RCP-SYD-2.1<br>Agg Site: 2PAR<br>Full Site Handover: 80<br>FAN RFS: 2011-07-31 [Mth 0]<br>Total Racks: 1<br>Site Owner: Optus<br>]]></description>
			<styleUrl>#black_sq</styleUrl>
			<Point>
				<coordinates>151.059968,-33.782892,0</coordinates>
			</Point>
		</Placemark>
		<Placemark>
			<name>6CNN</name>
			<description><![CDATA[<u>SITE:</u><br>Carnarvon North [6CNN]<br>State: WA<br>ESA: CVNN<br>FAN Size: <br>RCP: RCP-WANTH-16.1<br>Agg Site: 6GLT<br>Full Site Handover: 32<br>FAN RFS: 2011-07-31 [Mth 0]<br>Total Racks: 0<br>Site Owner: Telstra<br>]]></description>
			<styleUrl>#black_sq</styleUrl>
			<Point>
				<coordinates>113.707,-24.8503,0</coordinates>
			</Point>
		</Placemark>
		<Placemark>
			<name>6CVE</name>
			<description><![CDATA[<u>SITE:</u><br>Carnarvon Satellite Gateway [6CVE]<br>State: WA<br>ESA: 6CVE<br>FAN Size: <br>RCP: RCP-WANTH-16.1<br>Agg Site: 6GLT<br>Full Site Handover: 30<br>FAN RFS: 2011-07-31 [Mth 0]<br>Total Racks: 0<br>Site Owner: NBNCo<br>]]></description>
			<styleUrl>#black_sq</styleUrl>
			<Point>
				<coordinates>113.704293,-24.867518,0</coordinates>
			</Point>
		</Placemark>
		<Placemark>
			<name>4CAR</name>
			<description><![CDATA[<u>SITE:</u><br>Carols Creek [4CAR]<br>State: QLD<br>ESA: CACF<br>FAN Size: <br>RCP: RCP-QLDSTH-9.1<br>Agg Site: 4ROT<br>Full Site Handover: 15<br>FAN RFS: 2011-07-31 [Mth 0]<br>Total Racks: 0<br>Site Owner: Telstra<br>]]></description>
			<styleUrl>#black_sq</styleUrl>
			<Point>
				<coordinates>147.44861,-22.45528,0</coordinates>
			</Point>
		</Placemark>
		<Placemark>
			<name>2CAW</name>
			<description><![CDATA[<u>SITE:</u><br>Cawkers Well OFRS [2CAW]<br>State: NSW<br>ESA: CAWL<br>FAN Size: <br>RCP: RCP-NSWNTH-10.1<br>Agg Site: 2DBB<br>Full Site Handover: 34<br>FAN RFS: 2011-07-31 [Mth 0]<br>Total Racks: 1<br>Site Owner: Telstra<br>]]></description>
			<styleUrl>#black_sq</styleUrl>
			<Point>
				<coordinates>142.88722,-31.62083,0</coordinates>
			</Point>
		</Placemark>
		<Placemark>
			<name>5CDS</name>
			<description><![CDATA[<u>SITE:</u><br>Ceduna Satellite Gateway [5CDS]<br>State: SA<br>ESA: 5CDS<br>FAN Size: <br>RCP: RCP-SACTRY-14.1<br>Agg Site: 5PTA<br>Full Site Handover: 31<br>FAN RFS: 2011-07-31 [Mth 0]<br>Total Racks: 0<br>Site Owner: NBNCo<br>]]></description>
			<styleUrl>#black_sq</styleUrl>
			<Point>
				<coordinates>133.683506,-32.109797,0</coordinates>
			</Point>
		</Placemark>
		<Placemark>
			<name>2CPD</name>
			<description><![CDATA[<u>SITE:</u><br>Chippendale CEV [2CPD]<br>State: NSW<br>ESA: CPDL<br>FAN Size: <br>RCP: RCP-NSWSTH-11.1<br>Agg Site: 3SHP<br>Full Site Handover: 34<br>FAN RFS: 2011-07-31 [Mth 0]<br>Total Racks: 1<br>Site Owner: NextGen<br>]]></description>
			<styleUrl>#black_sq</styleUrl>
			<Point>
				<coordinates>142.873112,-34.519457,0</coordinates>
			</Point>
		</Placemark>
		<Placemark>
			<name>3YVV</name>
			<description><![CDATA[<u>SITE:</u><br>Chirnside Park [3YVV]<br>State: VIC<br>ESA: 33YV<br>FAN Size: <br>RCP: RCP-MEL-3.3<br>Agg Site: 3LIL<br>Full Site Handover: 80<br>FAN RFS: 2011-07-31 [Mth 0]<br>Total Racks: 1<br>Site Owner: Optus<br>]]></description>
			<styleUrl>#black_sq</styleUrl>
			<Point>
				<coordinates>145.299147,-37.76662,0</coordinates>
			</Point>
		</Placemark>
		<Placemark>
			<name>4CLA</name>
			<description><![CDATA[<u>SITE:</u><br>Clairview [4CLA]<br>State: QLD<br>ESA: CLVR<br>FAN Size: <br>RCP: RCP-QLDSTH-9.1<br>Agg Site: 4ROT<br>Full Site Handover: 15<br>FAN RFS: 2011-07-31 [Mth 0]<br>Total Racks: 1<br>Site Owner: Telstra<br>]]></description>
			<styleUrl>#black_sq</styleUrl>
			<Point>
				<coordinates>149.519,-22.1086,0</coordinates>
			</Point>
		</Placemark>
		<Placemark>
			<name>8CLA</name>
			<description><![CDATA[<u>SITE:</u><br>CLARAVALE REGEN [8CLA]<br>State: NT<br>ESA: CEOF<br>FAN Size: <br>RCP: RCP-NT-7.1<br>Agg Site: 8DRW<br>Full Site Handover: 25<br>FAN RFS: 2011-07-31 [Mth 0]<br>Total Racks: 1<br>Site Owner: Telstra<br>]]></description>
			<styleUrl>#black_sq</styleUrl>
			<Point>
				<coordinates>131.6025,-14.32861,0</coordinates>
			</Point>
		</Placemark>
		<Placemark>
			<name>4CLN</name>
			<description><![CDATA[<u>SITE:</u><br>Clinton [4CLN]<br>State: QLD<br>ESA: CNON<br>FAN Size: <br>RCP: RCP-QLDSTH-9.1<br>Agg Site: 4BBE<br>Full Site Handover: 120<br>FAN RFS: 2011-07-31 [Mth 0]<br>Total Racks: 0<br>Site Owner: Telstra<br>]]></description>
			<styleUrl>#black_sq</styleUrl>
			<Point>
				<coordinates>151.228,-23.8758,0</coordinates>
			</Point>
		</Placemark>
		<Placemark>
			<name>6CLH</name>
			<description><![CDATA[<u>SITE:</u><br>CLYDE HILL OFRS [6CLH]<br>State: WA<br>ESA: CLHL<br>FAN Size: <br>RCP: RCP-WASTH-15.1<br>Agg Site: 6KAT<br>Full Site Handover: 28<br>FAN RFS: 2011-07-31 [Mth 0]<br>Total Racks: 1<br>Site Owner: Telstra<br>]]></description>
			<styleUrl>#black_sq</styleUrl>
			<Point>
				<coordinates>122.94805,-33.4075,0</coordinates>
			</Point>
		</Placemark>
		<Placemark>
			<name>2CBG</name>
			<description><![CDATA[<u>SITE:</u><br>Cobargo [2CBG]<br>State: NSW<br>ESA: COGO<br>FAN Size: <br>RCP: RCP-NSWSTH-11.2<br>Agg Site: 2NWR<br>Full Site Handover: 22<br>FAN RFS: 2011-07-31 [Mth 0]<br>Total Racks: 2<br>Site Owner: Telstra<br>]]></description>
			<styleUrl>#black_sq</styleUrl>
			<Point>
				<coordinates>149.891,-36.3885,0</coordinates>
			</Point>
		</Placemark>
		<Placemark>
			<name>6CKO</name>
			<description><![CDATA[<u>SITE:</u><br>COCKLEBIDDY REP [6CKO]<br>State: WA<br>ESA: CKOF<br>FAN Size: <br>RCP: RCP-WASTH-15.1<br>Agg Site: 6KAT<br>Full Site Handover: 28<br>FAN RFS: 2011-07-31 [Mth 0]<br>Total Racks: 1<br>Site Owner: Telstra<br>]]></description>
			<styleUrl>#black_sq</styleUrl>
			<Point>
				<coordinates>126.34222,-31.99027,0</coordinates>
			</Point>
		</Placemark>
		<Placemark>
			<name>4COE</name>
			<description><![CDATA[<u>SITE:</u><br>COEN TRANSMISSION [4COE]<br>State: QLD<br>ESA: COEN<br>FAN Size: <br>RCP: RCP-QLDNTH-8.1<br>Agg Site: 4CAI<br>Full Site Handover: 36<br>FAN RFS: 2011-07-31 [Mth 0]<br>Total Racks: 1<br>Site Owner: Telstra<br>]]></description>
			<styleUrl>#black_sq</styleUrl>
			<Point>
				<coordinates>143.202,-13.938,0</coordinates>
			</Point>
		</Placemark>
		<Placemark>
			<name>2CFF</name>
			<description><![CDATA[<u>SITE:</u><br>Coffs Harbour Ops Depot [2CFF]<br>State: NSW<br>ESA: 2CFF<br>FAN Size: <br>RCP: RCP-NSWNTH-10.1<br>Agg Site: 2CFS<br>Full Site Handover: 0<br>FAN RFS: 2011-07-31 [Mth 0]<br>Total Racks: 0<br>Site Owner: NBNCo<br>]]></description>
			<styleUrl>#black_sq</styleUrl>
			<Point>
				<coordinates>153.1141,-30.2946,0</coordinates>
			</Point>
		</Placemark>
		<Placemark>
			<name>3CLL</name>
			<description><![CDATA[<u>SITE:</u><br>Collins St Office [3CLL]<br>State: VIC<br>ESA: 3CLL<br>FAN Size: <br>RCP: RCP-MEL-3.3<br>Agg Site: 3EXH<br>Full Site Handover: 0<br>FAN RFS: 2011-07-31 [Mth 0]<br>Total Racks: 0<br>Site Owner: NBNCo<br>]]></description>
			<styleUrl>#black_sq</styleUrl>
			<Point>
				<coordinates>144.95402,-37.8193,0</coordinates>
			</Point>
		</Placemark>
		<Placemark>
			<name>2CEB</name>
			<description><![CDATA[<u>SITE:</u><br>Come By Chance [2CEB]<br>State: NSW<br>ESA: CEBC<br>FAN Size: <br>RCP: RCP-NSWNTH-10.1<br>Agg Site: 2DBB<br>Full Site Handover: 18<br>FAN RFS: 2011-07-31 [Mth 0]<br>Total Racks: 1<br>Site Owner: Telstra<br>]]></description>
			<styleUrl>#black_sq</styleUrl>
			<Point>
				<coordinates>148.48549,-30.36503,0</coordinates>
			</Point>
		</Placemark>
		<Placemark>
			<name>8COW</name>
			<description><![CDATA[<u>SITE:</u><br>CONNORS WELL [8COW]<br>State: NT<br>ESA: CSWL<br>FAN Size: <br>RCP: RCP-NT-7.1<br>Agg Site: 8DRW<br>Full Site Handover: 27<br>FAN RFS: 2011-07-31 [Mth 0]<br>Total Racks: 1<br>Site Owner: Telstra<br>]]></description>
			<styleUrl>#black_sq</styleUrl>
			<Point>
				<coordinates>133.5513,-22.96027000000001,0</coordinates>
			</Point>
		</Placemark>
		<Placemark>
			<name>2CLB</name>
			<description><![CDATA[<u>SITE:</u><br>Coolabah [2CLB]<br>State: NSW<br>ESA: COLH<br>FAN Size: <br>RCP: RCP-NSWNTH-10.1<br>Agg Site: 2DBB<br>Full Site Handover: 18<br>FAN RFS: 2011-07-31 [Mth 0]<br>Total Racks: 1<br>Site Owner: Telstra<br>]]></description>
			<styleUrl>#black_sq</styleUrl>
			<Point>
				<coordinates>146.759,-30.9991,0</coordinates>
			</Point>
		</Placemark>
		<Placemark>
			<name>6COM</name>
			<description><![CDATA[<u>SITE:</u><br>COOMALBIDGUP OFRS [6COM]<br>State: WA<br>ESA: COPO<br>FAN Size: <br>RCP: RCP-WASTH-15.1<br>Agg Site: 6KAT<br>Full Site Handover: 24<br>FAN RFS: 2011-07-31 [Mth 0]<br>Total Racks: 1<br>Site Owner: Telstra<br>]]></description>
			<styleUrl>#black_sq</styleUrl>
			<Point>
				<coordinates>121.36333,-33.72278,0</coordinates>
			</Point>
		</Placemark>
		<Placemark>
			<name>4CBB</name>
			<description><![CDATA[<u>SITE:</u><br>COOMBABAH [4CBB]<br>State: QLD<br>ESA: CBBH<br>FAN Size: <br>RCP: RCP-BRS-1.1<br>Agg Site: 4SOP<br>Full Site Handover: 80<br>FAN RFS: 2011-07-31 [Mth 0]<br>Total Racks: 1<br>Site Owner: Telstra<br>]]></description>
			<styleUrl>#black_sq</styleUrl>
			<Point>
				<coordinates>153.399,-27.9273,0</coordinates>
			</Point>
		</Placemark>
		<Placemark>
			<name>2CMH</name>
			<description><![CDATA[<u>SITE:</u><br>Coombah CEV [2CMH]<br>State: NSW<br>ESA: CMBH<br>FAN Size: <br>RCP: RCP-NSWNTH-10.2<br>Agg Site: 2DBB<br>Full Site Handover: 34<br>FAN RFS: 2011-07-31 [Mth 0]<br>Total Racks: 1<br>Site Owner: NextGen<br>]]></description>
			<styleUrl>#black_sq</styleUrl>
			<Point>
				<coordinates>141.621054,-32.978527,0</coordinates>
			</Point>
		</Placemark>
		<Placemark>
			<name>6COO</name>
			<description><![CDATA[<u>SITE:</u><br>COONARRIE OFRS [6COO]<br>State: WA<br>ESA: CNRE<br>FAN Size: <br>RCP: RCP-WANTH-16.1<br>Agg Site: 6GLT<br>Full Site Handover: 21<br>FAN RFS: 2011-07-31 [Mth 0]<br>Total Racks: 1<br>Site Owner: Telstra<br>]]></description>
			<styleUrl>#black_sq</styleUrl>
			<Point>
				<coordinates>118.97611,-21.93139,0</coordinates>
			</Point>
		</Placemark>
		<Placemark>
			<name>5COO</name>
			<description><![CDATA[<u>SITE:</u><br>COONDAMBO [5COO]<br>State: SA<br>ESA: CDBO<br>FAN Size: <br>RCP: RCP-SACTRY-14.1<br>Agg Site: 5PTA<br>Full Site Handover: 27<br>FAN RFS: 2011-07-31 [Mth 0]<br>Total Racks: 1<br>Site Owner: Telstra<br>]]></description>
			<styleUrl>#black_sq</styleUrl>
			<Point>
				<coordinates>136.0669,-31.16138,0</coordinates>
			</Point>
		</Placemark>
		<Placemark>
			<name>6CSB</name>
			<description><![CDATA[<u>SITE:</u><br>COORAGOORA OFRS [6CSB]<br>State: WA<br>ESA: CSBO<br>FAN Size: <br>RCP: RCP-WANTH-16.1<br>Agg Site: 6GLT<br>Full Site Handover: 27<br>FAN RFS: 2011-07-31 [Mth 0]<br>Total Racks: 0<br>Site Owner: Telstra<br>]]></description>
			<styleUrl>#black_sq</styleUrl>
			<Point>
				<coordinates>120.25111,-19.96833,0</coordinates>
			</Point>
		</Placemark>
		<Placemark>
			<name>6CRL</name>
			<description><![CDATA[<u>SITE:</u><br>COORALYA OFRS [6CRL]<br>State: WA<br>ESA: COOF<br>FAN Size: <br>RCP: RCP-WANTH-16.1<br>Agg Site: 6GLT<br>Full Site Handover: 21<br>FAN RFS: 2011-07-31 [Mth 0]<br>Total Racks: 1<br>Site Owner: Telstra<br>]]></description>
			<styleUrl>#black_sq</styleUrl>
			<Point>
				<coordinates>113.93722,-24.56389,0</coordinates>
			</Point>
		</Placemark>
		<Placemark>
			<name>4COP</name>
			<description><![CDATA[<u>SITE:</u><br>COPPABELLA [4COP]<br>State: QLD<br>ESA: COPA<br>FAN Size: <br>RCP: RCP-QLDNTH-8.1<br>Agg Site: 4ROT<br>Full Site Handover: 33<br>FAN RFS: 2011-07-31 [Mth 0]<br>Total Racks: 0<br>Site Owner: Telstra<br>]]></description>
			<styleUrl>#black_sq</styleUrl>
			<Point>
				<coordinates>148.37,-21.9041,0</coordinates>
			</Point>
		</Placemark>
		<Placemark>
			<name>6COD</name>
			<description><![CDATA[<u>SITE:</u><br>CORDERING OFRS [6COD]<br>State: WA<br>ESA: CODG<br>FAN Size: <br>RCP: RCP-WASTH-15.1<br>Agg Site: 6KAT<br>Full Site Handover: 25<br>FAN RFS: 2011-07-31 [Mth 0]<br>Total Racks: 1<br>Site Owner: Telstra<br>]]></description>
			<styleUrl>#black_sq</styleUrl>
			<Point>
				<coordinates>116.60111,-33.46027,0</coordinates>
			</Point>
		</Placemark>
		<Placemark>
			<name>4CRA</name>
			<description><![CDATA[<u>SITE:</u><br>Cracow [4CRA]<br>State: QLD<br>ESA: CRAC<br>FAN Size: <br>RCP: RCP-QLDSTH-9.1<br>Agg Site: 4TOB<br>Full Site Handover: 20<br>FAN RFS: 2011-07-31 [Mth 0]<br>Total Racks: 1<br>Site Owner: Telstra<br>]]></description>
			<styleUrl>#black_sq</styleUrl>
			<Point>
				<coordinates>150.298,-25.2958,0</coordinates>
			</Point>
		</Placemark>
		<Placemark>
			<name>3CRN</name>
			<description><![CDATA[<u>SITE:</u><br>CRANBOURNE NORTH [3CRN]<br>State: VIC<br>ESA: CBNN<br>FAN Size: <br>RCP: RCP-MEL-3.3<br>Agg Site: 3CBN<br>Full Site Handover: 80<br>FAN RFS: 2011-07-31 [Mth 0]<br>Total Racks: 1<br>Site Owner: Telstra<br>]]></description>
			<styleUrl>#black_sq</styleUrl>
			<Point>
				<coordinates>145.279,-38.0813,0</coordinates>
			</Point>
		</Placemark>
		<Placemark>
			<name>2CBR</name>
			<description><![CDATA[<u>SITE:</u><br>Cumborah [2CBR]<br>State: NSW<br>ESA: CMBH<br>FAN Size: <br>RCP: RCP-NSWNTH-10.1<br>Agg Site: 2DBB<br>Full Site Handover: 18<br>FAN RFS: 2011-07-31 [Mth 0]<br>Total Racks: 1<br>Site Owner: Telstra<br>]]></description>
			<styleUrl>#black_sq</styleUrl>
			<Point>
				<coordinates>147.769,-29.742,0</coordinates>
			</Point>
		</Placemark>
		<Placemark>
			<name>5CMM</name>
			<description><![CDATA[<u>SITE:</u><br>Cummins [5CMM]<br>State: SA<br>ESA: CMNS<br>FAN Size: <br>RCP: RCP-SACTRY-14.1<br>Agg Site: 5PTA<br>Full Site Handover: 24<br>FAN RFS: 2011-07-31 [Mth 0]<br>Total Racks: 1<br>Site Owner: Telstra<br>]]></description>
			<styleUrl>#black_sq</styleUrl>
			<Point>
				<coordinates>135.727,-34.2642,0</coordinates>
			</Point>
		</Placemark>
		<Placemark>
			<name>2DGT</name>
			<description><![CDATA[<u>SITE:</u><br>Dalgety [2DGT]<br>State: NSW<br>ESA: DALG<br>FAN Size: <br>RCP: RCP-NSWSTH-11.2<br>Agg Site: 9QBN<br>Full Site Handover: 22<br>FAN RFS: 2011-07-31 [Mth 0]<br>Total Racks: 1<br>Site Owner: Telstra<br>]]></description>
			<styleUrl>#black_sq</styleUrl>
			<Point>
				<coordinates>148.835,-36.5056,0</coordinates>
			</Point>
		</Placemark>
		<Placemark>
			<name>8DAR</name>
			<description><![CDATA[<u>SITE:</u><br>DALY RIVER REGENERATOR [8DAR]<br>State: NT<br>ESA: DRRO<br>FAN Size: <br>RCP: RCP-NT-7.1<br>Agg Site: 8DRW<br>Full Site Handover: 25<br>FAN RFS: 2011-07-31 [Mth 0]<br>Total Racks: 1<br>Site Owner: Telstra<br>]]></description>
			<styleUrl>#black_sq</styleUrl>
			<Point>
				<coordinates>130.808,-13.52444,0</coordinates>
			</Point>
		</Placemark>
		<Placemark>
			<name>3DHH</name>
			<description><![CDATA[<u>SITE:</u><br>Dandenong [3DHH]<br>State: VIC<br>ESA: 33DH<br>FAN Size: <br>RCP: RCP-MEL-3.3<br>Agg Site: 3KEY<br>Full Site Handover: 80<br>FAN RFS: 2011-07-31 [Mth 0]<br>Total Racks: 1<br>Site Owner: Optus<br>]]></description>
			<styleUrl>#black_sq</styleUrl>
			<Point>
				<coordinates>145.201228,-37.987548,0</coordinates>
			</Point>
		</Placemark>
		<Placemark>
			<name>2DGM</name>
			<description><![CDATA[<u>SITE:</u><br>Danglemah [2DGM]<br>State: NSW<br>ESA: DAHO<br>FAN Size: <br>RCP: RCP-NSWNTH-10.1<br>Agg Site: 2TAM<br>Full Site Handover: 12<br>FAN RFS: 2011-07-31 [Mth 0]<br>Total Racks: 1<br>Site Owner: Telstra<br>]]></description>
			<styleUrl>#black_sq</styleUrl>
			<Point>
				<coordinates>151.25709,-31.007242,0</coordinates>
			</Point>
		</Placemark>
		<Placemark>
			<name>6DNL</name>
			<description><![CDATA[<u>SITE:</u><br>Daniell OFRS [6DNL]<br>State: WA<br>ESA: DNEL<br>FAN Size: <br>RCP: RCP-WASTH-15.1<br>Agg Site: 6KAT<br>Full Site Handover: 24<br>FAN RFS: 2011-07-31 [Mth 0]<br>Total Racks: 0<br>Site Owner: Telstra<br>]]></description>
			<styleUrl>#black_sq</styleUrl>
			<Point>
				<coordinates>121.64444,-32.517222,0</coordinates>
			</Point>
		</Placemark>
		<Placemark>
			<name>6DEB</name>
			<description><![CDATA[<u>SITE:</u><br>DEBESA OFRS [6DEB]<br>State: WA<br>ESA: DEBO<br>FAN Size: <br>RCP: RCP-WANTH-16.1<br>Agg Site: 6GLT<br>Full Site Handover: 27<br>FAN RFS: 2011-07-31 [Mth 0]<br>Total Racks: 1<br>Site Owner: Telstra<br>]]></description>
			<styleUrl>#black_sq</styleUrl>
			<Point>
				<coordinates>124.05805,-17.81388,0</coordinates>
			</Point>
		</Placemark>
		<Placemark>
			<name>2DPW</name>
			<description><![CDATA[<u>SITE:</u><br>Deepwater [2DPW]<br>State: NSW<br>ESA: DPWR<br>FAN Size: <br>RCP: RCP-NSWNTH-10.1<br>Agg Site: 2CFS<br>Full Site Handover: 24<br>FAN RFS: 2011-07-31 [Mth 0]<br>Total Racks: 1<br>Site Owner: Telstra<br>]]></description>
			<styleUrl>#black_sq</styleUrl>
			<Point>
				<coordinates>151.848,-29.4422,0</coordinates>
			</Point>
		</Placemark>
		<Placemark>
			<name>5DEL</name>
			<description><![CDATA[<u>SITE:</u><br>Delamere [5DEL]<br>State: SA<br>ESA: DEME<br>FAN Size: <br>RCP: RCP-SACTRY-14.1<br>Agg Site: 5STI<br>Full Site Handover: 120<br>FAN RFS: 2011-07-31 [Mth 0]<br>Total Racks: 2<br>Site Owner: Telstra<br>]]></description>
			<styleUrl>#black_sq</styleUrl>
			<Point>
				<coordinates>138.16,-35.6061,0</coordinates>
			</Point>
		</Placemark>
		<Placemark>
			<name>2DLG</name>
			<description><![CDATA[<u>SITE:</u><br>Delungra [2DLG]<br>State: NSW<br>ESA: DLGA<br>FAN Size: <br>RCP: RCP-NSWNTH-10.1<br>Agg Site: 2TAM<br>Full Site Handover: 32<br>FAN RFS: 2011-07-31 [Mth 0]<br>Total Racks: 0<br>Site Owner: Telstra<br>]]></description>
			<styleUrl>#black_sq</styleUrl>
			<Point>
				<coordinates>150.829,-29.6539,0</coordinates>
			</Point>
		</Placemark>
		<Placemark>
			<name>6DER</name>
			<description><![CDATA[<u>SITE:</u><br>DERBY TURNOFF OFRS [6DER]<br>State: WA<br>ESA: DERO<br>FAN Size: <br>RCP: RCP-WANTH-16.1<br>Agg Site: 6GLT<br>Full Site Handover: 27<br>FAN RFS: 2011-07-31 [Mth 0]<br>Total Racks: 1<br>Site Owner: Telstra<br>]]></description>
			<styleUrl>#black_sq</styleUrl>
			<Point>
				<coordinates>123.7325,-17.64361,0</coordinates>
			</Point>
		</Placemark>
		<Placemark>
			<name>4DIN</name>
			<description><![CDATA[<u>SITE:</u><br>Dingo [4DIN]<br>State: QLD<br>ESA: DINO<br>FAN Size: <br>RCP: RCP-QLDSTH-9.1<br>Agg Site: 4ROT<br>Full Site Handover: 15<br>FAN RFS: 2011-07-31 [Mth 0]<br>Total Racks: 1<br>Site Owner: Telstra<br>]]></description>
			<styleUrl>#black_sq</styleUrl>
			<Point>
				<coordinates>149.33806,-23.64722,0</coordinates>
			</Point>
		</Placemark>
		<Placemark>
			<name>4DIS</name>
			<description><![CDATA[<u>SITE:</u><br>Disney [4DIS]<br>State: QLD<br>ESA: DISR<br>FAN Size: <br>RCP: RCP-QLDNTH-8.1<br>Agg Site: 4MKY<br>Full Site Handover: 15<br>FAN RFS: 2011-07-31 [Mth 0]<br>Total Racks: 0<br>Site Owner: Telstra<br>]]></description>
			<styleUrl>#black_sq</styleUrl>
			<Point>
				<coordinates>146.97111,-21.79222,0</coordinates>
			</Point>
		</Placemark>
		<Placemark>
			<name>8DGD</name>
			<description><![CDATA[<u>SITE:</u><br>DJIRRUWU (TESLA) GOVE DRCS [8DGD]<br>State: NT<br>ESA: DJIR<br>FAN Size: <br>RCP: RCP-NT-7.1<br>Agg Site: 8DRW<br>Full Site Handover: 34<br>FAN RFS: 2011-07-31 [Mth 0]<br>Total Racks: 1<br>Site Owner: Telstra<br>]]></description>
			<styleUrl>#black_sq</styleUrl>
			<Point>
				<coordinates>136.5972,-12.38611,0</coordinates>
			</Point>
		</Placemark>
		<Placemark>
			<name>3DOC</name>
			<description><![CDATA[<u>SITE:</u><br>Docklands Depot [3DOC]<br>State: VIC<br>ESA: 3DOC<br>FAN Size: <br>RCP: RCP-MEL-3.2<br>Agg Site: 3MEB<br>Full Site Handover: 0<br>FAN RFS: 2011-07-31 [Mth 0]<br>Total Racks: 0<br>Site Owner: TBA<br>]]></description>
			<styleUrl>#black_sq</styleUrl>
			<Point>
				<coordinates>144.9413,-37.813,0</coordinates>
			</Point>
		</Placemark>
		<Placemark>
			<name>3DKL</name>
			<description><![CDATA[<u>SITE:</u><br>Docklands NBN Office [3DKL]<br>State: VIC<br>ESA: 3DKL<br>FAN Size: <br>RCP: RCP-MEL-3.2<br>Agg Site: 3EXH<br>Full Site Handover: 0<br>FAN RFS: 2011-07-31 [Mth 0]<br>Total Racks: 0<br>Site Owner: NBNCo<br>]]></description>
			<styleUrl>#black_sq</styleUrl>
			<Point>
				<coordinates>144.94664,-37.813964,0</coordinates>
			</Point>
		</Placemark>
		<Placemark>
			<name>3DCT</name>
			<description><![CDATA[<u>SITE:</u><br>DONCASTER [3DCT]<br>State: VIC<br>ESA: DONC<br>FAN Size: <br>RCP: RCP-MEL-3.2<br>Agg Site: 3NBA<br>Full Site Handover: 80<br>FAN RFS: 2011-07-31 [Mth 0]<br>Total Racks: 1<br>Site Owner: Telstra<br>]]></description>
			<styleUrl>#black_sq</styleUrl>
			<Point>
				<coordinates>145.124,-37.7863,0</coordinates>
			</Point>
		</Placemark>
		<Placemark>
			<name>6DOO</name>
			<description><![CDATA[<u>SITE:</u><br>DOOLGUNNA  MEEK OFRS [6DOO]<br>State: WA<br>ESA: DOOL<br>FAN Size: <br>RCP: RCP-WANTH-16.1<br>Agg Site: 6GLT<br>Full Site Handover: 21<br>FAN RFS: 2011-07-31 [Mth 0]<br>Total Racks: 1<br>Site Owner: Telstra<br>]]></description>
			<styleUrl>#black_sq</styleUrl>
			<Point>
				<coordinates>119.25444,-25.55167,0</coordinates>
			</Point>
		</Placemark>
		<Placemark>
			<name>8DOD</name>
			<description><![CDATA[<u>SITE:</u><br>DOUGLAS DALY [8DOD]<br>State: NT<br>ESA: DDOF<br>FAN Size: <br>RCP: RCP-NT-7.1<br>Agg Site: 8DRW<br>Full Site Handover: 25<br>FAN RFS: 2011-07-31 [Mth 0]<br>Total Racks: 1<br>Site Owner: Telstra<br>]]></description>
			<styleUrl>#black_sq</styleUrl>
			<Point>
				<coordinates>131.2977,-13.85777,0</coordinates>
			</Point>
		</Placemark>
		<Placemark>
			<name>4DCH</name>
			<description><![CDATA[<u>SITE:</u><br>Duchess CEV [4DCH]<br>State: QLD<br>ESA: DCHS<br>FAN Size: <br>RCP: RCP-QLDSTH-9.1<br>Agg Site: 4TOB<br>Full Site Handover: 28<br>FAN RFS: 2011-07-31 [Mth 0]<br>Total Racks: 1<br>Site Owner: NextGen<br>]]></description>
			<styleUrl>#black_sq</styleUrl>
			<Point>
				<coordinates>139.863653,-21.358033,0</coordinates>
			</Point>
		</Placemark>
		<Placemark>
			<name>6DHR</name>
			<description><![CDATA[<u>SITE:</u><br>DUNHAM RIVER OFRS [6DHR]<br>State: WA<br>ESA: DHRO<br>FAN Size: <br>RCP: RCP-WANTH-16.1<br>Agg Site: 6GLT<br>Full Site Handover: 27<br>FAN RFS: 2011-07-31 [Mth 0]<br>Total Racks: 1<br>Site Owner: Telstra<br>]]></description>
			<styleUrl>#black_sq</styleUrl>
			<Point>
				<coordinates>128.34861,-16.24083,0</coordinates>
			</Point>
		</Placemark>
		<Placemark>
			<name>8DUN</name>
			<description><![CDATA[<u>SITE:</u><br>Dunmarra [8DUN]<br>State: NT<br>ESA: DNMO<br>FAN Size: <br>RCP: RCP-NT-7.1<br>Agg Site: 8DRW<br>Full Site Handover: 37<br>FAN RFS: 2011-07-31 [Mth 0]<br>Total Racks: 1<br>Site Owner: Telstra<br>]]></description>
			<styleUrl>#black_sq</styleUrl>
			<Point>
				<coordinates>133.3575,-16.58111111,0</coordinates>
			</Point>
		</Placemark>
		<Placemark>
			<name>5DTN</name>
			<description><![CDATA[<u>SITE:</u><br>Dutton East CEV [5DTN]<br>State: SA<br>ESA: DTNE<br>FAN Size: <br>RCP: RCP-SACTRY-14.1<br>Agg Site: 5EZB<br>Full Site Handover: 33<br>FAN RFS: 2011-07-31 [Mth 0]<br>Total Racks: 1<br>Site Owner: NextGen<br>]]></description>
			<styleUrl>#black_sq</styleUrl>
			<Point>
				<coordinates>139.350247,-34.390833,0</coordinates>
			</Point>
		</Placemark>
		<Placemark>
			<name>2EGV</name>
			<description><![CDATA[<u>SITE:</u><br>EAGLEVALE [2EGV]<br>State: NSW<br>ESA: EGVL<br>FAN Size: <br>RCP: RCP-SYD-2.3<br>Agg Site: 2CBT<br>Full Site Handover: 80<br>FAN RFS: 2011-07-31 [Mth 0]<br>Total Racks: 0<br>Site Owner: Telstra<br>]]></description>
			<styleUrl>#black_sq</styleUrl>
			<Point>
				<coordinates>150.82,-34.0296,0</coordinates>
			</Point>
		</Placemark>
		<Placemark>
			<name>3EBB</name>
			<description><![CDATA[<u>SITE:</u><br>East Burwood [3EBB]<br>State: VIC<br>ESA: 33EB<br>FAN Size: <br>RCP: RCP-MEL-3.3<br>Agg Site: 3MEA<br>Full Site Handover: 80<br>FAN RFS: 2011-07-31 [Mth 0]<br>Total Racks: 4<br>Site Owner: Optus<br>]]></description>
			<styleUrl>#black_sq</styleUrl>
			<Point>
				<coordinates>145.162725,-37.858072,0</coordinates>
			</Point>
		</Placemark>
		<Placemark>
			<name>3EKW</name>
			<description><![CDATA[<u>SITE:</u><br>EAST KEW [3EKW]<br>State: VIC<br>ESA: EKEW<br>FAN Size: <br>RCP: RCP-MEL-3.2<br>Agg Site: 3KEW<br>Full Site Handover: 80<br>FAN RFS: 2011-07-31 [Mth 0]<br>Total Racks: 1<br>Site Owner: Telstra<br>]]></description>
			<styleUrl>#black_sq</styleUrl>
			<Point>
				<coordinates>145.063,-37.7936,0</coordinates>
			</Point>
		</Placemark>
		<Placemark>
			<name>6EDA</name>
			<description><![CDATA[<u>SITE:</u><br>EDAH OFRS [6EDA]<br>State: WA<br>ESA: EDAH<br>FAN Size: <br>RCP: RCP-WANTH-16.1<br>Agg Site: 6GLT<br>Full Site Handover: 21<br>FAN RFS: 2011-07-31 [Mth 0]<br>Total Racks: 0<br>Site Owner: Telstra<br>]]></description>
			<styleUrl>#black_sq</styleUrl>
			<Point>
				<coordinates>117.29028,-28.24639,0</coordinates>
			</Point>
		</Placemark>
		<Placemark>
			<name>4EID</name>
			<description><![CDATA[<u>SITE:</u><br>Eidsvold [4EID]<br>State: QLD<br>ESA: EIDS<br>FAN Size: <br>RCP: RCP-QLDSTH-9.1<br>Agg Site: 4TOB<br>Full Site Handover: 20<br>FAN RFS: 2011-07-31 [Mth 0]<br>Total Racks: 1<br>Site Owner: Telstra<br>]]></description>
			<styleUrl>#black_sq</styleUrl>
			<Point>
				<coordinates>151.123,-25.3702,0</coordinates>
			</Point>
		</Placemark>
		<Placemark>
			<name>6EJG</name>
			<description><![CDATA[<u>SITE:</u><br>Ejanding [6EJG]<br>State: WA<br>ESA: EJDG<br>FAN Size: <br>RCP: RCP-WANTH-16.1<br>Agg Site: 6PEB<br>Full Site Handover: 18<br>FAN RFS: 2011-07-31 [Mth 0]<br>Total Racks: 0<br>Site Owner: Telstra<br>]]></description>
			<styleUrl>#black_sq</styleUrl>
			<Point>
				<coordinates>117.1175,-31.01861,0</coordinates>
			</Point>
		</Placemark>
		<Placemark>
			<name>3ELL</name>
			<description><![CDATA[<u>SITE:</u><br>Ellaswood [3ELL]<br>State: VIC<br>ESA: ELLA<br>FAN Size: <br>RCP: RCP-VICEST-12.2<br>Agg Site: 3TAG<br>Full Site Handover: 34<br>FAN RFS: 2011-07-31 [Mth 0]<br>Total Racks: 1<br>Site Owner: Telstra<br>]]></description>
			<styleUrl>#black_sq</styleUrl>
			<Point>
				<coordinates>147.577,-37.7842,0</coordinates>
			</Point>
		</Placemark>
		<Placemark>
			<name>6ELE</name>
			<description><![CDATA[<u>SITE:</u><br>ELLENDALE OFRS [6ELE]<br>State: WA<br>ESA: ELEO<br>FAN Size: <br>RCP: RCP-WANTH-16.1<br>Agg Site: 6GLT<br>Full Site Handover: 27<br>FAN RFS: 2011-07-31 [Mth 0]<br>Total Racks: 1<br>Site Owner: Telstra<br>]]></description>
			<styleUrl>#black_sq</styleUrl>
			<Point>
				<coordinates>125.11305,-17.95916,0</coordinates>
			</Point>
		</Placemark>
		<Placemark>
			<name>3ELS</name>
			<description><![CDATA[<u>SITE:</u><br>ELSTERNWICK [3ELS]<br>State: VIC<br>ESA: ELSK<br>FAN Size: <br>RCP: RCP-MEL-3.3<br>Agg Site: 3STK<br>Full Site Handover: 80<br>FAN RFS: 2011-07-31 [Mth 0]<br>Total Racks: 1<br>Site Owner: Telstra<br>]]></description>
			<styleUrl>#black_sq</styleUrl>
			<Point>
				<coordinates>145.001,-37.8829,0</coordinates>
			</Point>
		</Placemark>
		<Placemark>
			<name>3EWD</name>
			<description><![CDATA[<u>SITE:</u><br>ELWOOD [3EWD]<br>State: VIC<br>ESA: EWOD<br>FAN Size: <br>RCP: RCP-MEL-3.2<br>Agg Site: 3STK<br>Full Site Handover: 80<br>FAN RFS: 2011-07-31 [Mth 0]<br>Total Racks: 1<br>Site Owner: Telstra<br>]]></description>
			<styleUrl>#black_sq</styleUrl>
			<Point>
				<coordinates>144.989,-37.8784,0</coordinates>
			</Point>
		</Placemark>
		<Placemark>
			<name>4EML</name>
			<description><![CDATA[<u>SITE:</u><br>Emerald CEV [4EML]<br>State: QLD<br>ESA: EMLD<br>FAN Size: <br>RCP: RCP-QLDSTH-9.2<br>Agg Site: 4ROT<br>Full Site Handover: 33<br>FAN RFS: 2011-07-31 [Mth 0]<br>Total Racks: 1<br>Site Owner: NextGen<br>]]></description>
			<styleUrl>#black_sq</styleUrl>
			<Point>
				<coordinates>148.152471,-23.523449,0</coordinates>
			</Point>
		</Placemark>
		<Placemark>
			<name>2EMD</name>
			<description><![CDATA[<u>SITE:</u><br>Emmdale OFRS [2EMD]<br>State: NSW<br>ESA: EMDL<br>FAN Size: <br>RCP: RCP-NSWNTH-10.1<br>Agg Site: 2DBB<br>Full Site Handover: 34<br>FAN RFS: 2011-07-31 [Mth 0]<br>Total Racks: 1<br>Site Owner: Telstra<br>]]></description>
			<styleUrl>#black_sq</styleUrl>
			<Point>
				<coordinates>144.27833,-31.65444,0</coordinates>
			</Point>
		</Placemark>
		<Placemark>
			<name>2EMU</name>
			<description><![CDATA[<u>SITE:</u><br>Emu Park [2EMU]<br>State: NSW<br>ESA: EMUP<br>FAN Size: <br>RCP: RCP-NSWNTH-10.1<br>Agg Site: 2GRN<br>Full Site Handover: 26<br>FAN RFS: 2011-07-31 [Mth 0]<br>Total Racks: 1<br>Site Owner: Telstra<br>]]></description>
			<styleUrl>#black_sq</styleUrl>
			<Point>
				<coordinates>153.10275,-29.00182,0</coordinates>
			</Point>
		</Placemark>
		<Placemark>
			<name>8EMS</name>
			<description><![CDATA[<u>SITE:</u><br>Emu Springs [8EMS]<br>State: NT<br>ESA: EYSP<br>FAN Size: <br>RCP: RCP-NT-7.1<br>Agg Site: 8DRW<br>Full Site Handover: 34<br>FAN RFS: 2011-07-31 [Mth 0]<br>Total Racks: 1<br>Site Owner: Telstra<br>]]></description>
			<styleUrl>#black_sq</styleUrl>
			<Point>
				<coordinates>134.8694444,-13.085,0</coordinates>
			</Point>
		</Placemark>
		<Placemark>
			<name>6EBB</name>
			<description><![CDATA[<u>SITE:</u><br>ENEABBA CREEK OFRS [6EBB]<br>State: WA<br>ESA: EBBA<br>FAN Size: <br>RCP: RCP-WANTH-16.1<br>Agg Site: 6GLT<br>Full Site Handover: 36<br>FAN RFS: 2011-07-31 [Mth 0]<br>Total Racks: 1<br>Site Owner: Telstra<br>]]></description>
			<styleUrl>#black_sq</styleUrl>
			<Point>
				<coordinates>115.25556,-29.828611,0</coordinates>
			</Point>
		</Placemark>
		<Placemark>
			<name>8ERS</name>
			<description><![CDATA[<u>SITE:</u><br>ERLDUNDA STATION [8ERS]<br>State: NT<br>ESA: ERLD<br>FAN Size: <br>RCP: RCP-NT-7.1<br>Agg Site: 8DRW<br>Full Site Handover: 27<br>FAN RFS: 2011-07-31 [Mth 0]<br>Total Racks: 1<br>Site Owner: Telstra<br>]]></description>
			<styleUrl>#black_sq</styleUrl>
			<Point>
				<coordinates>133.2016,-25.19556,0</coordinates>
			</Point>
		</Placemark>
		<Placemark>
			<name>2ESK</name>
			<description><![CDATA[<u>SITE:</u><br>ERSKINE PARK [2ESK]<br>State: NSW<br>ESA: ESPK<br>FAN Size: <br>RCP: RCP-SYD-2.1<br>Agg Site: 2SYB<br>Full Site Handover: 80<br>FAN RFS: 2011-07-31 [Mth 0]<br>Total Racks: 1<br>Site Owner: Telstra<br>]]></description>
			<styleUrl>#black_sq</styleUrl>
			<Point>
				<coordinates>150.78,-33.7995,0</coordinates>
			</Point>
		</Placemark>
		<Placemark>
			<name>4ETN</name>
			<description><![CDATA[<u>SITE:</u><br>ETON [4ETN]<br>State: QLD<br>ESA: ETON<br>FAN Size: <br>RCP: RCP-QLDNTH-8.1<br>Agg Site: 4ROT<br>Full Site Handover: 33<br>FAN RFS: 2011-07-31 [Mth 0]<br>Total Racks: 0<br>Site Owner: Telstra<br>]]></description>
			<styleUrl>#black_sq</styleUrl>
			<Point>
				<coordinates>148.98,-21.2565,0</coordinates>
			</Point>
		</Placemark>
		<Placemark>
			<name>4EUM</name>
			<description><![CDATA[<u>SITE:</u><br>Eumara Springs RT [4EUM]<br>State: QLD<br>ESA: ESGS<br>FAN Size: <br>RCP: RCP-QLDNTH-8.1<br>Agg Site: 4TNS<br>Full Site Handover: 35<br>FAN RFS: 2011-07-31 [Mth 0]<br>Total Racks: 1<br>Site Owner: Telstra<br>]]></description>
			<styleUrl>#black_sq</styleUrl>
			<Point>
				<coordinates>145.93361,-19.74194,0</coordinates>
			</Point>
		</Placemark>
		<Placemark>
			<name>4ENP</name>
			<description><![CDATA[<u>SITE:</u><br>EVERTON PARK [4ENP]<br>State: QLD<br>ESA: ENPK<br>FAN Size: <br>RCP: RCP-BRS-1.1<br>Agg Site: 4BNB<br>Full Site Handover: 80<br>FAN RFS: 2011-07-31 [Mth 0]<br>Total Racks: 1<br>Site Owner: Telstra<br>]]></description>
			<styleUrl>#black_sq</styleUrl>
			<Point>
				<coordinates>152.988,-27.3873,0</coordinates>
			</Point>
		</Placemark>
		<Placemark>
			<name>2FPP</name>
			<description><![CDATA[<u>SITE:</u><br>Fairfield [2FPP]<br>State: NSW<br>ESA: 22FP<br>FAN Size: <br>RCP: RCP-SYD-2.3<br>Agg Site: 2CRR<br>Full Site Handover: 80<br>FAN RFS: 2011-07-31 [Mth 0]<br>Total Racks: 1<br>Site Owner: Optus<br>]]></description>
			<styleUrl>#black_sq</styleUrl>
			<Point>
				<coordinates>150.955522,-33.861492,0</coordinates>
			</Point>
		</Placemark>
		<Placemark>
			<name>3FEE</name>
			<description><![CDATA[<u>SITE:</u><br>Ferntree Gully [3FEE]<br>State: VIC<br>ESA: 33FE<br>FAN Size: <br>RCP: RCP-MEL-3.3<br>Agg Site: 3WHL<br>Full Site Handover: 80<br>FAN RFS: 2011-07-31 [Mth 0]<br>Total Racks: 1<br>Site Owner: Optus<br>]]></description>
			<styleUrl>#black_sq</styleUrl>
			<Point>
				<coordinates>145.282741,-37.886718,0</coordinates>
			</Point>
		</Placemark>
		<Placemark>
			<name>8FIR</name>
			<description><![CDATA[<u>SITE:</u><br>FINKE RIVER [8FIR]<br>State: NT<br>ESA: FNRR<br>FAN Size: <br>RCP: RCP-NT-7.1<br>Agg Site: 8DRW<br>Full Site Handover: 27<br>FAN RFS: 2011-07-31 [Mth 0]<br>Total Racks: 0<br>Site Owner: Telstra<br>]]></description>
			<styleUrl>#black_sq</styleUrl>
			<Point>
				<coordinates>133.31,-24.46916,0</coordinates>
			</Point>
		</Placemark>
		<Placemark>
			<name>8FIN</name>
			<description><![CDATA[<u>SITE:</u><br>Finniss River OFRS [8FIN]<br>State: NT<br>ESA: FROF<br>FAN Size: <br>RCP: RCP-NT-7.1<br>Agg Site: 8DRW<br>Full Site Handover: 25<br>FAN RFS: 2011-07-31 [Mth 0]<br>Total Racks: 1<br>Site Owner: Telstra<br>]]></description>
			<styleUrl>#black_sq</styleUrl>
			<Point>
				<coordinates>130.62,-12.81833,0</coordinates>
			</Point>
		</Placemark>
		<Placemark>
			<name>4TUU</name>
			<description><![CDATA[<u>SITE:</u><br>Fitzgibbon [4TUU]<br>State: QLD<br>ESA: 44TU<br>FAN Size: <br>RCP: RCP-BRS-1.1<br>Agg Site: 4BNB<br>Full Site Handover: 80<br>FAN RFS: 2011-07-31 [Mth 0]<br>Total Racks: 2<br>Site Owner: Optus<br>]]></description>
			<styleUrl>#black_sq</styleUrl>
			<Point>
				<coordinates>153.034149,-27.339493,0</coordinates>
			</Point>
		</Placemark>
		<Placemark>
			<name>6FTZ</name>
			<description><![CDATA[<u>SITE:</u><br>FITZROY CROSSING EXCHANGE [6FTZ]<br>State: WA<br>ESA: FTZR<br>FAN Size: <br>RCP: RCP-WANTH-16.1<br>Agg Site: 6GLT<br>Full Site Handover: 27<br>FAN RFS: 2011-07-31 [Mth 0]<br>Total Racks: 1<br>Site Owner: Telstra<br>]]></description>
			<styleUrl>#black_sq</styleUrl>
			<Point>
				<coordinates>125.565,-18.1897,0</coordinates>
			</Point>
		</Placemark>
		<Placemark>
			<name>2FIV</name>
			<description><![CDATA[<u>SITE:</u><br>FIVE DOCK [2FIV]<br>State: NSW<br>ESA: FIVE<br>FAN Size: <br>RCP: RCP-SYD-2.2<br>Agg Site: 2GBE<br>Full Site Handover: 80<br>FAN RFS: 2011-07-31 [Mth 0]<br>Total Racks: 1<br>Site Owner: Telstra<br>]]></description>
			<styleUrl>#black_sq</styleUrl>
			<Point>
				<coordinates>151.131,-33.8629,0</coordinates>
			</Point>
		</Placemark>
		<Placemark>
			<name>4FSC</name>
			<description><![CDATA[<u>SITE:</u><br>Flagstone City [4FSC]<br>State: QLD<br>ESA: 4FSC<br>FAN Size: <br>RCP: RCP-BRS-1.2<br>Agg Site: 4GDN<br>Full Site Handover: 80<br>FAN RFS: 2011-07-31 [Mth 0]<br>Total Racks: 2<br>Site Owner: TBA<br>]]></description>
			<styleUrl>#black_sq</styleUrl>
			<Point>
				<coordinates>152.933781,-27.790947,0</coordinates>
			</Point>
		</Placemark>
		<Placemark>
			<name>3FTN</name>
			<description><![CDATA[<u>SITE:</u><br>Flemington Eastwood Street [3FTN]<br>State: VIC<br>ESA: FTON<br>FAN Size: <br>RCP: RCP-MEL-3.1<br>Agg Site: 3EXH<br>Full Site Handover: 80<br>FAN RFS: 2011-07-31 [Mth 0]<br>Total Racks: 1<br>Site Owner: Telstra<br>]]></description>
			<styleUrl>#black_sq</styleUrl>
			<Point>
				<coordinates>144.93,-37.7893,0</coordinates>
			</Point>
		</Placemark>
		<Placemark>
			<name>6FOR</name>
			<description><![CDATA[<u>SITE:</u><br>FORTESCUE OFRS [6FOR]<br>State: WA<br>ESA: FEOF<br>FAN Size: <br>RCP: RCP-WANTH-16.1<br>Agg Site: 6GLT<br>Full Site Handover: 21<br>FAN RFS: 2011-07-31 [Mth 0]<br>Total Racks: 1<br>Site Owner: Telstra<br>]]></description>
			<styleUrl>#black_sq</styleUrl>
			<Point>
				<coordinates>116.1375,-21.29611,0</coordinates>
			</Point>
		</Placemark>
		<Placemark>
			<name>7FOT</name>
			<description><![CDATA[<u>SITE:</u><br>Forth [7FOT]<br>State: TAS<br>ESA: FOTH<br>FAN Size: <br>RCP: RCP-TASNTH-4.1<br>Agg Site: 7LAU<br>Full Site Handover: 120<br>FAN RFS: 2011-07-31 [Mth 0]<br>Total Racks: 0<br>Site Owner: Telstra<br>]]></description>
			<styleUrl>#black_sq</styleUrl>
			<Point>
				<coordinates>146.254,-41.1898,0</coordinates>
			</Point>
		</Placemark>
		<Placemark>
			<name>6FRL</name>
			<description><![CDATA[<u>SITE:</u><br>Frankland OFRS [6FRL]<br>State: WA<br>ESA: FRLD<br>FAN Size: <br>RCP: RCP-WASTH-15.1<br>Agg Site: 6KAT<br>Full Site Handover: 25<br>FAN RFS: 2011-07-31 [Mth 0]<br>Total Racks: 1<br>Site Owner: Telstra<br>]]></description>
			<styleUrl>#black_sq</styleUrl>
			<Point>
				<coordinates>117.08194,-34.36305,0</coordinates>
			</Point>
		</Placemark>
		<Placemark>
			<name>5FRK</name>
			<description><![CDATA[<u>SITE:</u><br>Franklin Harbor OFRS [5FRK]<br>State: SA<br>ESA: FNKH<br>FAN Size: <br>RCP: RCP-SACTRY-14.1<br>Agg Site: 5PTA<br>Full Site Handover: 24<br>FAN RFS: 2011-07-31 [Mth 0]<br>Total Racks: 1<br>Site Owner: Telstra<br>]]></description>
			<styleUrl>#black_sq</styleUrl>
			<Point>
				<coordinates>136.93944,-33.60472,0</coordinates>
			</Point>
		</Placemark>
		<Placemark>
			<name>3CUU</name>
			<description><![CDATA[<u>SITE:</u><br>Frankston [3CUU]<br>State: VIC<br>ESA: 33CU<br>FAN Size: <br>RCP: RCP-MEL-3.3<br>Agg Site: 3KAL<br>Full Site Handover: 80<br>FAN RFS: 2011-07-31 [Mth 0]<br>Total Racks: 2<br>Site Owner: Optus<br>]]></description>
			<styleUrl>#black_sq</styleUrl>
			<Point>
				<coordinates>145.146593,-38.171608,0</coordinates>
			</Point>
		</Placemark>
		<Placemark>
			<name>9FYS</name>
			<description><![CDATA[<u>SITE:</u><br>Fyshwick NBN office [9FYS]<br>State: ACT<br>ESA: 9FYS<br>FAN Size: <br>RCP: RCP-NSWSTH-11.2<br>Agg Site: 9QBN<br>Full Site Handover: 0<br>FAN RFS: 2011-07-31 [Mth 0]<br>Total Racks: 0<br>Site Owner: NBNCo<br>]]></description>
			<styleUrl>#black_sq</styleUrl>
			<Point>
				<coordinates>149.188237,-35.330244,0</coordinates>
			</Point>
		</Placemark>
		<Placemark>
			<name>8GAD</name>
			<description><![CDATA[<u>SITE:</u><br>GAPUWIYAK DCS-20 [8GAD]<br>State: NT<br>ESA: GPWK<br>FAN Size: <br>RCP: RCP-NT-7.1<br>Agg Site: 8DRW<br>Full Site Handover: 34<br>FAN RFS: 2011-07-31 [Mth 0]<br>Total Racks: 1<br>Site Owner: Telstra<br>]]></description>
			<styleUrl>#black_sq</styleUrl>
			<Point>
				<coordinates>135.8038,-12.50361,0</coordinates>
			</Point>
		</Placemark>
		<Placemark>
			<name>3GAL</name>
			<description><![CDATA[<u>SITE:</u><br>GARDENVALE [3GAL]<br>State: VIC<br>ESA: GALE<br>FAN Size: <br>RCP: RCP-MEL-3.3<br>Agg Site: 3STK<br>Full Site Handover: 80<br>FAN RFS: 2011-07-31 [Mth 0]<br>Total Racks: 1<br>Site Owner: Telstra<br>]]></description>
			<styleUrl>#black_sq</styleUrl>
			<Point>
				<coordinates>145,-37.8966,0</coordinates>
			</Point>
		</Placemark>
		<Placemark>
			<name>7GEV</name>
			<description><![CDATA[<u>SITE:</u><br>Geeveston [7GEV]<br>State: TAS<br>ESA: GEON<br>FAN Size: <br>RCP: RCP-TASSTH-4.2<br>Agg Site: 7HOB<br>Full Site Handover: 4<br>FAN RFS: 2020-12-31 [Mth 113]<br>Total Racks: 5<br>Site Owner: Telstra<br>]]></description>
			<styleUrl>#black_sq</styleUrl>
			<Point>
				<coordinates>146.927667,-43.164047,0</coordinates>
			</Point>
		</Placemark>
		<Placemark>
			<name>7GES</name>
			<description><![CDATA[<u>SITE:</u><br>Geeveston Satellite Gateway [7GES]<br>State: TAS<br>ESA: 7GES<br>FAN Size: <br>RCP: RCP-TASSTH-4.2<br>Agg Site: 7HOB<br>Full Site Handover: 29<br>FAN RFS: 2011-07-31 [Mth 0]<br>Total Racks: 0<br>Site Owner: NBNCo<br>]]></description>
			<styleUrl>#black_sq</styleUrl>
			<Point>
				<coordinates>146.945265,-43.116238,0</coordinates>
			</Point>
		</Placemark>
		<Placemark>
			<name>6POL</name>
			<description><![CDATA[<u>SITE:</u><br>Geraldton Office [6POL]<br>State: WA<br>ESA: 6POL<br>FAN Size: <br>RCP: RCP-WANTH-16.1<br>Agg Site: 6GLT<br>Full Site Handover: 0<br>FAN RFS: 2011-07-31 [Mth 0]<br>Total Racks: 0<br>Site Owner: NBNCo<br>]]></description>
			<styleUrl>#black_sq</styleUrl>
			<Point>
				<coordinates>114.600896,-28.778693,0</coordinates>
			</Point>
		</Placemark>
		<Placemark>
			<name>6GLS</name>
			<description><![CDATA[<u>SITE:</u><br>Geraldton Satellite Gateway [6GLS]<br>State: WA<br>ESA: 6GLS<br>FAN Size: <br>RCP: RCP-WANTH-16.1<br>Agg Site: 6GLT<br>Full Site Handover: 31<br>FAN RFS: 2011-07-31 [Mth 0]<br>Total Racks: 2<br>Site Owner: NBNCo<br>]]></description>
			<styleUrl>#black_sq</styleUrl>
			<Point>
				<coordinates>114.747113,-28.781426,0</coordinates>
			</Point>
		</Placemark>
		<Placemark>
			<name>2GRI</name>
			<description><![CDATA[<u>SITE:</u><br>Geurie [2GRI]<br>State: NSW<br>ESA: GRIE<br>FAN Size: <br>RCP: RCP-NSWNTH-10.2<br>Agg Site: 2DBB<br>Full Site Handover: 22<br>FAN RFS: 2013-08-31 [Mth 25]<br>Total Racks: 5<br>Site Owner: Telstra<br>]]></description>
			<styleUrl>#black_sq</styleUrl>
			<Point>
				<coordinates>148.828029,-32.39925,0</coordinates>
			</Point>
		</Placemark>
		<Placemark>
			<name>4GID</name>
			<description><![CDATA[<u>SITE:</u><br>Gidyea Creek [4GID]<br>State: QLD<br>ESA: GICT<br>FAN Size: <br>RCP: RCP-QLDNTH-8.1<br>Agg Site: 4MKY<br>Full Site Handover: 15<br>FAN RFS: 2011-07-31 [Mth 0]<br>Total Racks: 1<br>Site Owner: Telstra<br>]]></description>
			<styleUrl>#black_sq</styleUrl>
			<Point>
				<coordinates>146.72611,-21.46917,0</coordinates>
			</Point>
		</Placemark>
		<Placemark>
			<name>2GLG</name>
			<description><![CDATA[<u>SITE:</u><br>Gilgooma [2GLG]<br>State: NSW<br>ESA: GLGA<br>FAN Size: <br>RCP: RCP-NSWNTH-10.1<br>Agg Site: 2DBB<br>Full Site Handover: 18<br>FAN RFS: 2011-07-31 [Mth 0]<br>Total Racks: 1<br>Site Owner: Telstra<br>]]></description>
			<styleUrl>#black_sq</styleUrl>
			<Point>
				<coordinates>148.541,-30.7453,0</coordinates>
			</Point>
		</Placemark>
		<Placemark>
			<name>4GLL</name>
			<description><![CDATA[<u>SITE:</u><br>Giliat CEV [4GLL]<br>State: QLD<br>ESA: GLLT<br>FAN Size: <br>RCP: RCP-QLDSTH-9.1<br>Agg Site: 4TOB<br>Full Site Handover: 28<br>FAN RFS: 2011-07-31 [Mth 0]<br>Total Racks: 1<br>Site Owner: NextGen<br>]]></description>
			<styleUrl>#black_sq</styleUrl>
			<Point>
				<coordinates>141.494111,-20.681194,0</coordinates>
			</Point>
		</Placemark>
		<Placemark>
			<name>6GIL</name>
			<description><![CDATA[<u>SITE:</u><br>Gillingarra OFRS [6GIL]<br>State: WA<br>ESA: GIOF<br>FAN Size: <br>RCP: RCP-WANTH-16.1<br>Agg Site: 6GLT<br>Full Site Handover: 36<br>FAN RFS: 2011-07-31 [Mth 0]<br>Total Racks: 1<br>Site Owner: Telstra<br>]]></description>
			<styleUrl>#black_sq</styleUrl>
			<Point>
				<coordinates>115.6597,-30.9267,0</coordinates>
			</Point>
		</Placemark>
		<Placemark>
			<name>2GRB</name>
			<description><![CDATA[<u>SITE:</u><br>Girilambone [2GRB]<br>State: NSW<br>ESA: GBNE<br>FAN Size: <br>RCP: RCP-NSWNTH-10.1<br>Agg Site: 2DBB<br>Full Site Handover: 18<br>FAN RFS: 2011-07-31 [Mth 0]<br>Total Racks: 1<br>Site Owner: Telstra<br>]]></description>
			<styleUrl>#black_sq</styleUrl>
			<Point>
				<coordinates>146.896,-31.256,0</coordinates>
			</Point>
		</Placemark>
		<Placemark>
			<name>5GLE</name>
			<description><![CDATA[<u>SITE:</u><br>GLENDAMBO [5GLE]<br>State: SA<br>ESA: GLBO<br>FAN Size: <br>RCP: RCP-SACTRY-14.1<br>Agg Site: 5PTA<br>Full Site Handover: 27<br>FAN RFS: 2011-07-31 [Mth 0]<br>Total Racks: 1<br>Site Owner: Telstra<br>]]></description>
			<styleUrl>#black_sq</styleUrl>
			<Point>
				<coordinates>135.752,-30.9664,0</coordinates>
			</Point>
		</Placemark>
		<Placemark>
			<name>2GNR</name>
			<description><![CDATA[<u>SITE:</u><br>GLENORA OF REGENERATOR [2GNR]<br>State: NSW<br>ESA: GNRO<br>FAN Size: <br>RCP: RCP-NSWNTH-10.1<br>Agg Site: 2DBB<br>Full Site Handover: 34<br>FAN RFS: 2011-07-31 [Mth 0]<br>Total Racks: 1<br>Site Owner: Telstra<br>]]></description>
			<styleUrl>#black_sq</styleUrl>
			<Point>
				<coordinates>142.42833,-31.74444,0</coordinates>
			</Point>
		</Placemark>
		<Placemark>
			<name>4GLE</name>
			<description><![CDATA[<u>SITE:</u><br>Glenwood [4GLE]<br>State: QLD<br>ESA: GLEW<br>FAN Size: <br>RCP: RCP-QLDSTH-9.1<br>Agg Site: 4BBE<br>Full Site Handover: 114<br>FAN RFS: 2023-05-31 [Mth 142]<br>Total Racks: 5<br>Site Owner: Telstra<br>]]></description>
			<styleUrl>#black_sq</styleUrl>
			<Point>
				<coordinates>152.64,-25.9577,0</coordinates>
			</Point>
		</Placemark>
		<Placemark>
			<name>6GNO</name>
			<description><![CDATA[<u>SITE:</u><br>Gnowangerup [6GNO]<br>State: WA<br>ESA: GNOW<br>FAN Size: <br>RCP: RCP-WASTH-15.1<br>Agg Site: 6KAT<br>Full Site Handover: 27<br>FAN RFS: 2026-08-31 [Mth 181]<br>Total Racks: 5<br>Site Owner: Telstra<br>]]></description>
			<styleUrl>#black_sq</styleUrl>
			<Point>
				<coordinates>118.00709,-33.937152,0</coordinates>
			</Point>
		</Placemark>
		<Placemark>
			<name>2GDG</name>
			<description><![CDATA[<u>SITE:</u><br>Goodooga [2GDG]<br>State: NSW<br>ESA: GDGA<br>FAN Size: <br>RCP: RCP-NSWNTH-10.1<br>Agg Site: 2DBB<br>Full Site Handover: 18<br>FAN RFS: 2011-07-31 [Mth 0]<br>Total Racks: 1<br>Site Owner: Telstra<br>]]></description>
			<styleUrl>#black_sq</styleUrl>
			<Point>
				<coordinates>147.482,-29.1327,0</coordinates>
			</Point>
		</Placemark>
		<Placemark>
			<name>2GGW</name>
			<description><![CDATA[<u>SITE:</u><br>Goolgowi [2GGW]<br>State: NSW<br>ESA: GOGI<br>FAN Size: <br>RCP: RCP-NSWSTH-11.1<br>Agg Site: 2ALB<br>Full Site Handover: 24<br>FAN RFS: 2011-07-31 [Mth 0]<br>Total Racks: 1<br>Site Owner: Telstra<br>]]></description>
			<styleUrl>#black_sq</styleUrl>
			<Point>
				<coordinates>145.709,-33.9801,0</coordinates>
			</Point>
		</Placemark>
		<Placemark>
			<name>6GML</name>
			<description><![CDATA[<u>SITE:</u><br>Goomalling [6GML]<br>State: WA<br>ESA: GMLG<br>FAN Size: <br>RCP: RCP-WANTH-16.1<br>Agg Site: 6PEB<br>Full Site Handover: 18<br>FAN RFS: 2011-07-31 [Mth 0]<br>Total Racks: 1<br>Site Owner: Telstra<br>]]></description>
			<styleUrl>#black_sq</styleUrl>
			<Point>
				<coordinates>116.827,-31.2991,0</coordinates>
			</Point>
		</Placemark>
		<Placemark>
			<name>3GOR</name>
			<description><![CDATA[<u>SITE:</u><br>GOROKE [3GOR]<br>State: VIC<br>ESA: GORK<br>FAN Size: <br>RCP: RCP-VICWST-12.1<br>Agg Site: 3HRS<br>Full Site Handover: 34<br>FAN RFS: 2011-07-31 [Mth 0]<br>Total Racks: 1<br>Site Owner: Telstra<br>]]></description>
			<styleUrl>#black_sq</styleUrl>
			<Point>
				<coordinates>141.477,-36.7215,0</coordinates>
			</Point>
		</Placemark>
		<Placemark>
			<name>8GOR</name>
			<description><![CDATA[<u>SITE:</u><br>Gorrie CEV [8GOR]<br>State: NT<br>ESA: GORR<br>FAN Size: <br>RCP: RCP-NT-7.1<br>Agg Site: 8DRW<br>Full Site Handover: 27<br>FAN RFS: 2011-07-31 [Mth 0]<br>Total Racks: 1<br>Site Owner: NextGen<br>]]></description>
			<styleUrl>#black_sq</styleUrl>
			<Point>
				<coordinates>132.763716,-15.223978,0</coordinates>
			</Point>
		</Placemark>
		<Placemark>
			<name>5GRD</name>
			<description><![CDATA[<u>SITE:</u><br>Granite Downs OFRS [5GRD]<br>State: SA<br>ESA: GRDW<br>FAN Size: <br>RCP: RCP-SACTRY-14.1<br>Agg Site: 5PTA<br>Full Site Handover: 27<br>FAN RFS: 2011-07-31 [Mth 0]<br>Total Racks: 1<br>Site Owner: Telstra<br>]]></description>
			<styleUrl>#black_sq</styleUrl>
			<Point>
				<coordinates>133.3335,-26.8335,0</coordinates>
			</Point>
		</Placemark>
		<Placemark>
			<name>4GRD</name>
			<description><![CDATA[<u>SITE:</u><br>Greendale South [4GRD]<br>State: QLD<br>ESA: GRDL<br>FAN Size: <br>RCP: RCP-QLDSTH-9.1<br>Agg Site: 4ROT<br>Full Site Handover: 23<br>FAN RFS: 2011-07-31 [Mth 0]<br>Total Racks: 1<br>Site Owner: Telstra<br>]]></description>
			<styleUrl>#black_sq</styleUrl>
			<Point>
				<coordinates>146.0525,-24.76528,0</coordinates>
			</Point>
		</Placemark>
		<Placemark>
			<name>4GVL</name>
			<description><![CDATA[<u>SITE:</u><br>GREENVALE [4GVL]<br>State: QLD<br>ESA: GNVL<br>FAN Size: <br>RCP: RCP-QLDNTH-8.1<br>Agg Site: 4TNS<br>Full Site Handover: 35<br>FAN RFS: 2011-07-31 [Mth 0]<br>Total Racks: 1<br>Site Owner: Telstra<br>]]></description>
			<styleUrl>#black_sq</styleUrl>
			<Point>
				<coordinates>144.981,-19.0001,0</coordinates>
			</Point>
		</Placemark>
		<Placemark>
			<name>5GWT</name>
			<description><![CDATA[<u>SITE:</u><br>GREENWITH [5GWT]<br>State: SA<br>ESA: GWTH<br>FAN Size: <br>RCP: RCP-ADL-5.1<br>Agg Site: 5MOD<br>Full Site Handover: 80<br>FAN RFS: 2011-07-31 [Mth 0]<br>Total Racks: 1<br>Site Owner: Telstra<br>]]></description>
			<styleUrl>#black_sq</styleUrl>
			<Point>
				<coordinates>138.71,-34.7661,0</coordinates>
			</Point>
		</Placemark>
		<Placemark>
			<name>8GRO</name>
			<description><![CDATA[<u>SITE:</u><br>Gregory OFRS [8GRO]<br>State: NT<br>ESA: GRYO<br>FAN Size: <br>RCP: RCP-NT-7.1<br>Agg Site: 8DRW<br>Full Site Handover: 27<br>FAN RFS: 2011-07-31 [Mth 0]<br>Total Racks: 1<br>Site Owner: Telstra<br>]]></description>
			<styleUrl>#black_sq</styleUrl>
			<Point>
				<coordinates>130.9163,-15.61388,0</coordinates>
			</Point>
		</Placemark>
		<Placemark>
			<name>2GUB</name>
			<description><![CDATA[<u>SITE:</u><br>Gulargambone [2GUB]<br>State: NSW<br>ESA: GGBN<br>FAN Size: <br>RCP: RCP-NSWNTH-10.1<br>Agg Site: 2DBB<br>Full Site Handover: 18<br>FAN RFS: 2011-07-31 [Mth 0]<br>Total Racks: 1<br>Site Owner: Telstra<br>]]></description>
			<styleUrl>#black_sq</styleUrl>
			<Point>
				<coordinates>148.471,-31.33010000000001,0</coordinates>
			</Point>
		</Placemark>
		<Placemark>
			<name>4GUM</name>
			<description><![CDATA[<u>SITE:</u><br>Gumlu [4GUM]<br>State: QLD<br>ESA: GUMT<br>FAN Size: <br>RCP: RCP-QLDNTH-8.1<br>Agg Site: 4MKY<br>Full Site Handover: 15<br>FAN RFS: 2011-07-31 [Mth 0]<br>Total Racks: 1<br>Site Owner: Telstra<br>]]></description>
			<styleUrl>#black_sq</styleUrl>
			<Point>
				<coordinates>147.68528,-19.87778,0</coordinates>
			</Point>
		</Placemark>
		<Placemark>
			<name>2GND</name>
			<description><![CDATA[<u>SITE:</u><br>GUNADOO [2GND]<br>State: NSW<br>ESA: GNDO<br>FAN Size: <br>RCP: RCP-NSWNTH-10.1<br>Agg Site: 2TAM<br>Full Site Handover: 33<br>FAN RFS: 2011-07-31 [Mth 0]<br>Total Racks: 0<br>Site Owner: Telstra<br>]]></description>
			<styleUrl>#black_sq</styleUrl>
			<Point>
				<coordinates>149.78777,-29.91305,0</coordinates>
			</Point>
		</Placemark>
		<Placemark>
			<name>4GUN</name>
			<description><![CDATA[<u>SITE:</u><br>GUNALDA [4GUN]<br>State: QLD<br>ESA: GUNA<br>FAN Size: <br>RCP: RCP-QLDSTH-9.1<br>Agg Site: 4BBE<br>Full Site Handover: 29<br>FAN RFS: 2011-07-31 [Mth 0]<br>Total Racks: 1<br>Site Owner: Telstra<br>]]></description>
			<styleUrl>#black_sq</styleUrl>
			<Point>
				<coordinates>152.542,-25.9517,0</coordinates>
			</Point>
		</Placemark>
		<Placemark>
			<name>2GNB</name>
			<description><![CDATA[<u>SITE:</u><br>Gunbar [2GNB]<br>State: NSW<br>ESA: GNBA<br>FAN Size: <br>RCP: RCP-NSWSTH-11.1<br>Agg Site: 2DBB<br>Full Site Handover: 34<br>FAN RFS: 2011-07-31 [Mth 0]<br>Total Racks: 1<br>Site Owner: Telstra<br>]]></description>
			<styleUrl>#black_sq</styleUrl>
			<Point>
				<coordinates>145.47222,-34.05194,0</coordinates>
			</Point>
		</Placemark>
		<Placemark>
			<name>2GDR</name>
			<description><![CDATA[<u>SITE:</u><br>Gundaroo [2GDR]<br>State: NSW<br>ESA: SNE2<br>FAN Size: <br>RCP: RCP-NSWSTH-11.1<br>Agg Site: 9CVI<br>Full Site Handover: 11<br>FAN RFS: 2011-07-31 [Mth 0]<br>Total Racks: 1<br>Site Owner: Telstra<br>]]></description>
			<styleUrl>#black_sq</styleUrl>
			<Point>
				<coordinates>149.31638888889,-35.02,0</coordinates>
			</Point>
		</Placemark>
		<Placemark>
			<name>4GNN</name>
			<description><![CDATA[<u>SITE:</u><br>Gunnewin CEV [4GNN]<br>State: QLD<br>ESA: GNNW<br>FAN Size: <br>RCP: RCP-QLDSTH-9.2<br>Agg Site: 4TOB<br>Full Site Handover: 28<br>FAN RFS: 2011-07-31 [Mth 0]<br>Total Racks: 1<br>Site Owner: NextGen<br>]]></description>
			<styleUrl>#black_sq</styleUrl>
			<Point>
				<coordinates>148.570194,-26.003186,0</coordinates>
			</Point>
		</Placemark>
		<Placemark>
			<name>5HLT</name>
			<description><![CDATA[<u>SITE:</u><br>Hallett [5HLT]<br>State: SA<br>ESA: HLLT<br>FAN Size: <br>RCP: RCP-SACTRY-14.1<br>Agg Site: 5PTA<br>Full Site Handover: 120<br>FAN RFS: 2011-07-31 [Mth 0]<br>Total Racks: 2<br>Site Owner: Telstra<br>]]></description>
			<styleUrl>#black_sq</styleUrl>
			<Point>
				<coordinates>138.893,-33.412,0</coordinates>
			</Point>
		</Placemark>
		<Placemark>
			<name>6HSC</name>
			<description><![CDATA[<u>SITE:</u><br>HALLS CREEK [6HSC]<br>State: WA<br>ESA: HSCK<br>FAN Size: <br>RCP: RCP-WANTH-16.1<br>Agg Site: 6GLT<br>Full Site Handover: 27<br>FAN RFS: 2011-07-31 [Mth 0]<br>Total Racks: 1<br>Site Owner: Telstra<br>]]></description>
			<styleUrl>#black_sq</styleUrl>
			<Point>
				<coordinates>127.664,-18.2262,0</coordinates>
			</Point>
		</Placemark>
		<Placemark>
			<name>3HTL</name>
			<description><![CDATA[<u>SITE:</u><br>HARTWELL [3HTL]<br>State: VIC<br>ESA: HTLL<br>FAN Size: <br>RCP: RCP-MEL-3.3<br>Agg Site: 3CAU<br>Full Site Handover: 80<br>FAN RFS: 2011-07-31 [Mth 0]<br>Total Racks: 1<br>Site Owner: Telstra<br>]]></description>
			<styleUrl>#black_sq</styleUrl>
			<Point>
				<coordinates>145.077,-37.8477,0</coordinates>
			</Point>
		</Placemark>
		<Placemark>
			<name>3HTR</name>
			<description><![CDATA[<u>SITE:</u><br>Hattah Radio Tower [3HTR]<br>State: VIC<br>ESA: HTRT<br>FAN Size: <br>RCP: RCP-VICWST-12.1<br>Agg Site: 3SHP<br>Full Site Handover: 31<br>FAN RFS: 2011-07-31 [Mth 0]<br>Total Racks: 1<br>Site Owner: Telstra<br>]]></description>
			<styleUrl>#black_sq</styleUrl>
			<Point>
				<coordinates>142.2797222,-34.77666667,0</coordinates>
			</Point>
		</Placemark>